address,href,parcel,price,rooms,sqm,zip,lon,lat
Kanaalstraat 81 I 1054 XB Amsterdam,https://www.funda.nl/koop/amsterdam/appartement-40856026-kanaalstraat-81-i/?navigateSource=resultlist,51,400,3,51,1054,4.863642899999999,52.3621354
Sara Burgerhartstraat 10 H 1055 KX Amsterdam,https://www.funda.nl/koop/amsterdam/appartement-40732795-sara-burgerhartstraat-10-h/?navigateSource=resultlist,78,345,3,78,1055,4.850234899999999,52.38235
Steve Bikoplein 5 -II 1092 GM Amsterdam,https://www.funda.nl/koop/amsterdam/appartement-40713177-steve-bikoplein-5-ii/?navigateSource=resultlist,72,450,3,72,1092,4.9238595,52.3557467
Wagenaarstraat 153 1093 CN Amsterdam,https://www.funda.nl/koop/amsterdam/appartement-40715980-wagenaarstraat-153/?navigateSource=resultlist,50,275,2,50,1093,4.9260262,52.3631678
Fokkezeil 101 1034 MX Amsterdam,https://www.funda.nl/koop/amsterdam/appartement-40751379-fokkezeil-101/?navigateSource=resultlist,75,225,3,75,1034,4.9238408,52.410758
Retiefstraat 21 1 1092 VV Amsterdam,https://www.funda.nl/koop/amsterdam/appartement-40758259-retiefstraat-21-1/?navigateSource=resultlist,77,450,4,77,1092,4.92471,52.356153
Van Helt Stocadestraat 18 -1 1073 JC Amsterdam,https://www.funda.nl/koop/amsterdam/appartement-40624572-van-helt-stocadestraat-18-1/?navigateSource=resultlist,68,375,4,68,1073,4.8965147,52.3494807
Jacques Veltmanstraat 81 1065 EG Amsterdam,https://www.funda.nl/koop/amsterdam/appartement-40621268-jacques-veltmanstraat-81/?navigateSource=resultlist,152,580,4,152,1065,4.8328483,52.3557667
Brittenburg 5 1082 BS Amsterdam,https://www.funda.nl/koop/amsterdam/appartement-40674056-brittenburg-5/?navigateSource=resultlist,67,325,3,67,1082,4.8713294,52.3260563
Spadinalaan 5 1031 KB Amsterdam,https://www.funda.nl/koop/amsterdam/appartement-40678770-spadinalaan-5/?navigateSource=resultlist,148,825,4,148,1031,4.9030611,52.3870908
Memlingstraat 7 - hs 1077 LP Amsterdam,https://www.funda.nl/koop/amsterdam/appartement-40661960-memlingstraat-7-hs/?navigateSource=resultlist,242,1500,6,242,1077,4.874830999999999,52.350111
Brouwersgracht 106 +102 1013 GZ Amsterdam,https://www.funda.nl/koop/amsterdam/appartement-40511392-brouwersgracht-106-102/?navigateSource=resultlist,111,1050,2,111,1013,4.889808599999999,52.3800889
Westerdok 578 1013 BH Amsterdam,https://www.funda.nl/koop/amsterdam/appartement-40855506-westerdok-578/?navigateSource=resultlist,67,450,2,67,1013,4.891895,52.38527449999999
Tussen Meer 160 1069 DV Amsterdam,https://www.funda.nl/koop/amsterdam/appartement-40744888-tussen-meer-160/?navigateSource=resultlist,72,245,3,72,1069,4.7926068,52.3569644
Pieter Calandlaan 1013 1069 SC Amsterdam,https://www.funda.nl/koop/amsterdam/appartement-40744436-pieter-calandlaan-1013/?navigateSource=resultlist,84,275,3,84,1069,4.7982345,52.3514112
Keizersgracht 259 E 1016 EC Amsterdam,https://www.funda.nl/koop/amsterdam/appartement-40734477-keizersgracht-259-e/?navigateSource=resultlist,181,1385,7,181,1016,4.8852049,52.371603
Van Leijenberghlaan 16 A 1082 GM Amsterdam,https://www.funda.nl/koop/amsterdam/appartement-40733804-van-leijenberghlaan-16-a/?navigateSource=resultlist,108,510,3,108,1082,4.8787976,52.3323172
Schollenbrugpad 60 1091 ST Amsterdam,https://www.funda.nl/koop/amsterdam/appartement-40730129-schollenbrugpad-60/?navigateSource=resultlist,94,600,2,94,1091,4.9136947,52.3509061
Ladogameerhof 12 1060 PJ Amsterdam,https://www.funda.nl/koop/amsterdam/appartement-40730001-ladogameerhof-12/?navigateSource=resultlist,108,295,4,108,1060,4.7799203,52.3511569
Keizersgracht 294 F 1016 EW Amsterdam,https://www.funda.nl/koop/amsterdam/appartement-40739274-keizersgracht-294-f/?navigateSource=resultlist,120,950,4,120,1016,4.884303099999999,52.37083519999999
Vrolikstraat 269 A 1091 VB Amsterdam,https://www.funda.nl/koop/amsterdam/appartement-40739033-vrolikstraat-269-a/?navigateSource=resultlist,95,700,4,95,1091,4.9164859,52.3558628
Klinkerweg 37 1033 PJ Amsterdam,https://www.funda.nl/koop/amsterdam/appartement-40739630-klinkerweg-37/?navigateSource=resultlist,53,200,2,53,1033,4.8979722,52.4069241
Langswater 363 1069 EC Amsterdam,https://www.funda.nl/koop/amsterdam/appartement-40738226-langswater-363/?navigateSource=resultlist,61,175,3,61,1069,4.790106900000001,52.3554959
Zeeburgerkade 154 1019 HJ Amsterdam,https://www.funda.nl/koop/amsterdam/appartement-40737456-zeeburgerkade-154/?navigateSource=resultlist,107,595,2,107,1019,4.941457,52.36920689999999
Bosrankstraat 2 1032 LH Amsterdam,https://www.funda.nl/koop/amsterdam/appartement-40725756-bosrankstraat-2/?navigateSource=resultlist,97,465,3,97,1032,4.9079201,52.3972343
Lou Jansenplein 55 III 1063 GW Amsterdam,https://www.funda.nl/koop/amsterdam/appartement-40714029-lou-jansenplein-55-iii/?navigateSource=resultlist,69,225,3,69,1063,4.8202794,52.3836012
Kanteel 1 1083 DA Amsterdam,https://www.funda.nl/koop/amsterdam/appartement-40714528-kanteel-1/?navigateSource=resultlist,85,530,3,85,1083,4.8814544,52.3257585
Oudezijds Voorburgwal 233 -B 1012 EZ Amsterdam,https://www.funda.nl/koop/amsterdam/appartement-40712507-oudezijds-voorburgwal-233-b/?navigateSource=resultlist,96,650,3,96,1012,4.8948243,52.3698855
Langswater 577 1069 EE Amsterdam,https://www.funda.nl/koop/amsterdam/appartement-40711896-langswater-577/?navigateSource=resultlist,71,200,3,71,1069,4.7888632,52.3573771
Baarsjesweg 139 A 1057 HM Amsterdam,https://www.funda.nl/koop/amsterdam/appartement-86175325-baarsjesweg-139-a/?navigateSource=resultlist,80,375,2,80,1057,4.863285299999999,52.3687938
Venetiëstraat 74 1019 NJ Amsterdam,https://www.funda.nl/koop/amsterdam/appartement-40718695-venetiestraat-74/?navigateSource=resultlist,90,695,3,90,1019,4.948296399999999,52.3766531
Hoofdweg 138 IV 1057 DA Amsterdam,https://www.funda.nl/koop/amsterdam/appartement-40717186-hoofdweg-138-iv/?navigateSource=resultlist,104,500,4,104,1057,4.853436299999999,52.36450139999999
Adriaan van Bergenstraat 4 III 1056 JW Amsterdam,https://www.funda.nl/koop/amsterdam/appartement-40717796-adriaan-van-bergenstraat-4-iii/?navigateSource=resultlist,55,325,3,55,1056,4.8642833,52.3725645
Dikninge 111 1083 VA Amsterdam,https://www.funda.nl/koop/amsterdam/appartement-40716109-dikninge-111/?navigateSource=resultlist,74,390,3,74,1083,4.886593,52.3318741
Wilhelminastraat 40 II 1054 WJ Amsterdam,https://www.funda.nl/koop/amsterdam/appartement-40704209-wilhelminastraat-40-ii/?navigateSource=resultlist,50,385,3,50,1054,4.8657585,52.3623056
Amstelveenseweg 73 -IV 1075 VV Amsterdam,https://www.funda.nl/koop/amsterdam/appartement-40793658-amstelveenseweg-73-iv/?navigateSource=resultlist,77,450,3,77,1075,4.8560909,52.3535051
Bos en Lommerweg 334 1061 DJ Amsterdam,https://www.funda.nl/koop/amsterdam/appartement-40758391-bos-en-lommerweg-334/?navigateSource=resultlist,97,400,3,97,1061,4.8386053,52.37876379999999
Haparandadam 2 E18 1013 AK Amsterdam,https://www.funda.nl/koop/amsterdam/appartement-40635264-haparandadam-2-e18/?navigateSource=resultlist,130,825,4,130,1013,4.8791135,52.3958464
Circusplein 81 1033 ZJ Amsterdam,https://www.funda.nl/koop/amsterdam/appartement-40622744-circusplein-81/?navigateSource=resultlist,68,225,3,68,1033,4.8840233,52.417507
Lederambachtstraat 38 1069 HK Amsterdam,https://www.funda.nl/koop/amsterdam/appartement-40628182-lederambachtstraat-38/?navigateSource=resultlist,78,250,4,78,1069,4.7952109,52.3558181
Matrozenhof 27 1018 ZP Amsterdam,https://www.funda.nl/koop/amsterdam/appartement-40627221-matrozenhof-27/?navigateSource=resultlist,51,325,2,51,1018,4.9154294,52.369777
Van der Palmkade 170 1051 RK Amsterdam,https://www.funda.nl/koop/amsterdam/appartement-40611757-van-der-palmkade-170/?navigateSource=resultlist,80,500,3,80,1051,4.8725001,52.3807249
Plantage Muidergracht 120 1018 TW Amsterdam,https://www.funda.nl/koop/amsterdam/appartement-40616013-plantage-muidergracht-120/?navigateSource=resultlist,78,489,3,78,1018,4.9155659,52.3638456
Omval 111 1096 AA Amsterdam,https://www.funda.nl/koop/amsterdam/appartement-40600436-omval-111/?navigateSource=resultlist,100,495,3,100,1096,4.9155209,52.3446027
Vrijzicht 85 1068 CG Amsterdam,https://www.funda.nl/koop/amsterdam/appartement-40682924-vrijzicht-85/?navigateSource=resultlist,96,285,4,96,1068,4.8083208,52.3624441
Amsteldijk 16 boven 1074 HR Amsterdam,https://www.funda.nl/koop/amsterdam/appartement-40681118-amsteldijk-16-boven/?navigateSource=resultlist,167,1095,5,167,1074,4.9039936,52.3574873
Frans van Mierisstraat 29 -III 1071 RJ Amsterdam,https://www.funda.nl/koop/amsterdam/appartement-40680368-frans-van-mierisstraat-29-iii/?navigateSource=resultlist,204,1595,5,204,1071,4.8839064,52.354730000000004
Rengerskerkestraat 26 1069 HV Amsterdam,https://www.funda.nl/koop/amsterdam/appartement-40688508-rengerskerkestraat-26/?navigateSource=resultlist,103,350,3,103,1069,4.7935805,52.35507459999999
Prinsengracht 955 f 1017 KL Amsterdam,https://www.funda.nl/koop/amsterdam/appartement-40676290-prinsengracht-955-f/?navigateSource=resultlist,61,498,2,61,1017,4.8922538,52.3623394
Sam van Houtenstraat 197 F 1067 JG Amsterdam,https://www.funda.nl/koop/amsterdam/appartement-40540174-sam-van-houtenstraat-197-f/?navigateSource=resultlist,125,375,4,125,1067,4.800704,52.3791749
M. Gandhilaan 37 1069 NC Amsterdam,https://www.funda.nl/koop/amsterdam/appartement-40549301-m-gandhilaan-37/?navigateSource=resultlist,78,275,3,78,1069,4.7777134,52.3547586
Leidsegracht 82 N 1016 CR Amsterdam,https://www.funda.nl/koop/amsterdam/appartement-40538768-leidsegracht-82-n/?navigateSource=resultlist,98,575,2,98,1016,4.8817284,52.3660159
Eerste Constantijn Huygensstraat 28 -G 1054 BR Amsterdam,https://www.funda.nl/koop/amsterdam/appartement-40596483-eerste-constantijn-huygensstraat-28-g/?navigateSource=resultlist,117,750,3,117,1054,4.8736393,52.3649455
Langswater 730 1069 EG Amsterdam,https://www.funda.nl/koop/amsterdam/appartement-40856034-langswater-730/?navigateSource=resultlist,61,175,3,61,1069,4.7885142,52.3582202
Tuigerstraat 36 1033 PH Amsterdam,https://www.funda.nl/koop/amsterdam/appartement-40744387-tuigerstraat-36/?navigateSource=resultlist,60,225,2,60,1033,4.897758,52.406357
Lambertus Zijlplein 101 1067 JR Amsterdam,https://www.funda.nl/koop/amsterdam/appartement-40733043-lambertus-zijlplein-101/?navigateSource=resultlist,101,275,3,101,1067,4.8013981,52.378606
Baden Powellweg 14 A 1069 KW Amsterdam,https://www.funda.nl/koop/amsterdam/appartement-40732686-baden-powellweg-14-a/?navigateSource=resultlist,97,315,4,97,1069,4.7939327,52.3511029
Quinten Massijsstraat 20 II 1077 MD Amsterdam,https://www.funda.nl/koop/amsterdam/appartement-40731140-quinten-massijsstraat-20-ii/?navigateSource=resultlist,125,695,5,125,1077,4.8750753,52.3476381
Treilerhof 38 1034 CB Amsterdam,https://www.funda.nl/koop/amsterdam/appartement-40730159-treilerhof-38/?navigateSource=resultlist,75,250,4,75,1034,4.9108558,52.40735410000001
Langswater 494 1069 ED Amsterdam,https://www.funda.nl/koop/amsterdam/appartement-40739042-langswater-494/?navigateSource=resultlist,71,175,3,71,1069,4.7896078,52.3565899
Jephtastraat 65 -IV 1055 JS Amsterdam,https://www.funda.nl/koop/amsterdam/appartement-40736947-jephtastraat-65-iv/?navigateSource=resultlist,80,225,4,80,1055,4.8454039,52.3811772
Liendenhof 113 1108 HE Amsterdam,https://www.funda.nl/koop/amsterdam/appartement-40725428-liendenhof-113/?navigateSource=resultlist,124,295,4,124,1108,4.983733,52.3088231
Veembroederhof 243 1019 HD Amsterdam,https://www.funda.nl/koop/amsterdam/appartement-40714044-veembroederhof-243/?navigateSource=resultlist,82,450,3,82,1019,4.9244653,52.3764005
Wittgensteinlaan 43 1062 KA Amsterdam,https://www.funda.nl/koop/amsterdam/appartement-40711805-wittgensteinlaan-43/?navigateSource=resultlist,94,425,3,94,1062,4.8353803,52.3551853
Duinluststraat 17 1024 VH Amsterdam,https://www.funda.nl/koop/amsterdam/appartement-40710927-duinluststraat-17/?navigateSource=resultlist,85,275,3,85,1024,4.954191499999999,52.3955758
Baden Powellweg 89 1069 LD Amsterdam,https://www.funda.nl/koop/amsterdam/appartement-40718746-baden-powellweg-89/?navigateSource=resultlist,92,225,4,92,1069,4.795647499999999,52.3483874
Bep van Klaverenboulevard 54 1034 WP Amsterdam,https://www.funda.nl/koop/amsterdam/appartement-40715267-bep-van-klaverenboulevard-54/?navigateSource=resultlist,99,275,3,99,1034,4.9180716,52.4031767
Lucellestraat 36 II 1055 JA Amsterdam,https://www.funda.nl/koop/amsterdam/appartement-40704054-lucellestraat-36-ii/?navigateSource=resultlist,60,295,2,60,1055,4.849543499999999,52.3798146
Alfred Döblinstraat 166 1102 VN Amsterdam,https://www.funda.nl/koop/amsterdam/appartement-40793119-alfred-doblinstraat-166/?navigateSource=resultlist,70,210,3,70,1102,4.945716099999999,52.3201377
Prinsengracht 491 B 1016 HR Amsterdam,https://www.funda.nl/koop/amsterdam/appartement-40751342-prinsengracht-491-b/?navigateSource=resultlist,161,1400,3,161,1016,4.8830899,52.3694873
Nicolaas Anslijnstraat 135 1068 WV Amsterdam,https://www.funda.nl/koop/amsterdam/appartement-40751363-nicolaas-anslijnstraat-135/?navigateSource=resultlist,81,250,3,81,1068,4.808121799999999,52.3574459
Bestevâerstraat 215 HS 1055 TM Amsterdam,https://www.funda.nl/koop/amsterdam/appartement-40751716-bestevaerstraat-215-hs/?navigateSource=resultlist,60,325,4,60,1055,4.857375,52.379498
Jesse Owenshof 6 1034 WT Amsterdam,https://www.funda.nl/koop/amsterdam/appartement-40637570-jesse-owenshof-6/?navigateSource=resultlist,103,350,4,103,1034,4.921065899999999,52.40350309999999
Prins Hendrikkade 132 E 1011 AR Amsterdam,https://www.funda.nl/koop/amsterdam/appartement-40621866-prins-hendrikkade-132-e/?navigateSource=resultlist,136,900,4,136,1011,4.9053547,52.3737624
Spadinalaan 6 1031 KB Amsterdam,https://www.funda.nl/koop/amsterdam/appartement-40620856-spadinalaan-6/?navigateSource=resultlist,98,595,3,98,1031,4.9030543,52.3870893
Amstelvlietstraat 171 1096 GG Amsterdam,https://www.funda.nl/koop/amsterdam/appartement-40627268-amstelvlietstraat-171/?navigateSource=resultlist,149,795,4,149,1096,4.919942499999999,52.3384744
Winthontstraat 10 1013 BR Amsterdam,https://www.funda.nl/koop/amsterdam/appartement-40625218-winthontstraat-10/?navigateSource=resultlist,79,550,3,79,1013,4.8925759,52.3845102
Eastonstraat 200 1068 JG Amsterdam,https://www.funda.nl/koop/amsterdam/appartement-40617896-eastonstraat-200/?navigateSource=resultlist,92,275,4,92,1068,4.8132426,52.3564912
Korte Geuzenstraat 11 III 1056 KR Amsterdam,https://www.funda.nl/koop/amsterdam/appartement-40603860-korte-geuzenstraat-11-iii/?navigateSource=resultlist,85,400,3,85,1056,4.8647851,52.3711102
John Blankensteinstraat 169 -A 1095 MB Amsterdam,https://www.funda.nl/koop/amsterdam/appartement-40602771-john-blankensteinstraat-169-a/?navigateSource=resultlist,122,549,5,122,1095,4.967978899999999,52.373936
Overtoom 34 II 1054 HK Amsterdam,https://www.funda.nl/koop/amsterdam/appartement-40609752-overtoom-34-ii/?navigateSource=resultlist,129,799.011,4,129,1054,4.8769022,52.3634267
Graafschapstraat 102 1079 PE Amsterdam,https://www.funda.nl/koop/amsterdam/appartement-86062180-graafschapstraat-102/?navigateSource=resultlist,163,850,5,163,1079,4.894216699999999,52.3391497
Hammarbystraat 14 +PP 1031 KD Amsterdam,https://www.funda.nl/koop/amsterdam/appartement-86062178-hammarbystraat-14-pp/?navigateSource=resultlist,108,695,3,108,1031,4.901783399999999,52.3863522
Nieuwevaart 99 1018 AA Amsterdam,https://www.funda.nl/koop/amsterdam/appartement-40684762-nieuwevaart-99/?navigateSource=resultlist,175,1150.011,5,175,1018,4.914734999999999,52.3701787
Spadinalaan 54 1031 KB Amsterdam,https://www.funda.nl/koop/amsterdam/appartement-40674148-spadinalaan-54/?navigateSource=resultlist,92,750,3,92,1031,4.9014087,52.3867445
Nieuwezijds Voorburgwal 157 -III-IV 1012 RK Amsterdam,https://www.funda.nl/koop/amsterdam/appartement-40673752-nieuwezijds-voorburgwal-157-iii-iv/?navigateSource=resultlist,121,785,5,121,1012,4.8909958,52.3723981
Admiraal De Ruijterweg 400 Huis 1055 ND Amsterdam,https://www.funda.nl/koop/amsterdam/appartement-40678264-admiraal-de-ruijterweg-400-huis/?navigateSource=resultlist,140,720,5,140,1055,4.8512954,52.3827529
Ardennenlaan 188 1066 SE Amsterdam,https://www.funda.nl/koop/amsterdam/appartement-40526101-ardennenlaan-188/?navigateSource=resultlist,141,750,4,141,1066,4.8113657,52.3461551
Herengracht 455 F 1017 BS Amsterdam,https://www.funda.nl/koop/amsterdam/appartement-40512021-herengracht-455-f/?navigateSource=resultlist,79,649,3,79,1017,4.8891667,52.3666226
Eerste Helmersstraat 98 C 1054 EG Amsterdam,https://www.funda.nl/koop/amsterdam/appartement-40581892-eerste-helmersstraat-98-c/?navigateSource=resultlist,99,615,4,99,1054,4.8721941,52.3628021
Rijnstraat 60 III 1079 HJ Amsterdam,https://www.funda.nl/koop/amsterdam/appartement-40444010-rijnstraat-60-iii/?navigateSource=resultlist,62,345.011,3,62,1079,4.9051073,52.34593229999999
Roompotstraat 6 1078 KV Amsterdam,https://www.funda.nl/koop/amsterdam/appartement-40744370-roompotstraat-6/?navigateSource=resultlist,150,985,7,150,1078,4.8881206,52.345642
Assumburg 10 1081 GC Amsterdam,https://www.funda.nl/koop/amsterdam/appartement-86192763-assumburg-10/?navigateSource=resultlist,87,375,3,87,1081,4.8680164,52.3283786
Dusartstraat 38 III+IV 1072 HT Amsterdam,https://www.funda.nl/koop/amsterdam/appartement-40737810-dusartstraat-38-iii-iv/?navigateSource=resultlist,74,495,2,74,1072,4.8892356,52.3516499
Derde Kostverlorenkade 21 -II 1054 TP Amsterdam,https://www.funda.nl/koop/amsterdam/appartement-40714021-derde-kostverlorenkade-21-ii/?navigateSource=resultlist,55,350,3,55,1054,4.8568991,52.3599717
Veembroederhof 209 +PP 1019 HD Amsterdam,https://www.funda.nl/koop/amsterdam/appartement-86173917-veembroederhof-209-pp/?navigateSource=resultlist,119,595,2,119,1019,4.92442,52.3764004
Compagniestraat 29 1018 HM Amsterdam,https://www.funda.nl/koop/amsterdam/appartement-40715134-compagniestraat-29/?navigateSource=resultlist,60,335,2,60,1018,4.924345,52.3695156
Rheastraat 2 1076 DS Amsterdam,https://www.funda.nl/koop/amsterdam/appartement-86074370-rheastraat-2/?navigateSource=resultlist,128,1200,3,128,1076,4.8544348,52.34584049999999
Prinsengracht 532 D 1017 KJ Amsterdam,https://www.funda.nl/koop/amsterdam/appartement-40548109-prinsengracht-532-d/?navigateSource=resultlist,177,1600,5,177,1017,4.8865335,52.3631908
Geldersekade 37 -2 1011 EJ Amsterdam,https://www.funda.nl/koop/amsterdam/appartement-40427748-geldersekade-37-2/?navigateSource=resultlist,96,595,3,96,1011,4.902299900000001,52.3753675
Jacob van Lennepkade 75 ll 1054 ZH Amsterdam,https://www.funda.nl/koop/amsterdam/appartement-40855249-jacob-van-lennepkade-75-ll/?navigateSource=resultlist,65,425,2,65,1054,4.873765,52.36539
Haarlemmerstraat 99 1013 EM Amsterdam,https://www.funda.nl/koop/amsterdam/appartement-86219503-haarlemmerstraat-99/?navigateSource=resultlist,116,795,3,116,1013,4.8906501,52.3806096
Spinnekop 17 1035 CK Amsterdam,https://www.funda.nl/koop/amsterdam/appartement-40744658-spinnekop-17/?navigateSource=resultlist,94,275,4,94,1035,4.8909747,52.4176262
Trompenburgstraat 127 I 1079 TW Amsterdam,https://www.funda.nl/koop/amsterdam/appartement-40718570-trompenburgstraat-127-i/?navigateSource=resultlist,72,450,4,72,1079,4.9059031,52.34376409999999
Hofwijckstraat 22 I 1055 GG Amsterdam,https://www.funda.nl/koop/amsterdam/appartement-40716611-hofwijckstraat-22-i/?navigateSource=resultlist,70,325,3,70,1055,4.8506282,52.3797291
Elisabeth Wolffstraat 14 4 1052 RR Amsterdam,https://www.funda.nl/koop/amsterdam/appartement-40759028-elisabeth-wolffstraat-14-4/?navigateSource=resultlist,80,550,3,80,1052,4.8668751,52.3704896
Van Eeghenstraat 61 hs 1071 EW Amsterdam,https://www.funda.nl/koop/amsterdam/appartement-40549959-van-eeghenstraat-61-hs/?navigateSource=resultlist,194,1800,7,194,1071,4.873922299999999,52.35750969999999
Saxen-Weimarlaan 41 A 1075 BZ Amsterdam,https://www.funda.nl/koop/amsterdam/appartement-40513853-saxen-weimarlaan-41-a/?navigateSource=resultlist,189,1695,5,189,1075,4.8576704,52.3521511
Erasmusgracht 21 H 1056 BB Amsterdam,https://www.funda.nl/koop/amsterdam/appartement-40732600-erasmusgracht-21-h/?navigateSource=resultlist,52,299,2,52,1056,4.8468415,52.3750563
Kanteel 12 1083 DA Amsterdam,https://www.funda.nl/koop/amsterdam/appartement-40751639-kanteel-12/?navigateSource=resultlist,131,699,4,131,1083,4.881473199999999,52.325399
Jan de Jonghstraat 77 1063 MB Amsterdam,https://www.funda.nl/koop/amsterdam/appartement-40622263-jan-de-jonghstraat-77/?navigateSource=resultlist,66,240,3,66,1063,4.8248426,52.3793847
Spadinalaan 123 1031 KB Amsterdam,https://www.funda.nl/koop/amsterdam/appartement-40628124-spadinalaan-123/?navigateSource=resultlist,140,850,4,140,1031,4.9004445,52.3865675
Jacob van Lennepkade 408 HS 1053 NN Amsterdam,https://www.funda.nl/koop/amsterdam/appartement-86076467-jacob-van-lennepkade-408-hs/?navigateSource=resultlist,146,1100,4,146,1053,4.859166,52.362213
Emmastraat 29 III 1071 JB Amsterdam,https://www.funda.nl/koop/amsterdam/appartement-40696288-emmastraat-29-iii/?navigateSource=resultlist,162,1150,4,162,1071,4.8696377,52.3533571
Brouwersgracht 176 H 1013 HB Amsterdam,https://www.funda.nl/koop/amsterdam/appartement-40681260-brouwersgracht-176-h/?navigateSource=resultlist,123,795,3,123,1013,4.888189,52.3812116
Van Woustraat 45 -II 1074 AB Amsterdam,https://www.funda.nl/koop/amsterdam/appartement-40674848-van-woustraat-45-ii/?navigateSource=resultlist,66,450,3,66,1074,4.9005448,52.3559925
Tretjakovlaan 6 1064 PR Amsterdam,https://www.funda.nl/koop/amsterdam/appartement-40525912-tretjakovlaan-6/?navigateSource=resultlist,91,425,3,91,1064,4.830604,52.366173
Willeskopstraat 121 1107 KN Amsterdam,https://www.funda.nl/koop/amsterdam/appartement-40739952-willeskopstraat-121/?navigateSource=resultlist,65,185,3,65,1107,4.986526599999999,52.2949734
Arènpalmstraat 4 1104 DB Amsterdam,https://www.funda.nl/koop/amsterdam/appartement-40736787-arenpalmstraat-4/?navigateSource=resultlist,164,425,4,164,1104,4.9822761,52.3206639
Gaffelaarspad 11 1081 KK Amsterdam,https://www.funda.nl/koop/amsterdam/appartement-40711503-gaffelaarspad-11/?navigateSource=resultlist,102,545,4,102,1081,4.8566502,52.3330468
Brouwersgracht 138 A 1013 HA Amsterdam,https://www.funda.nl/koop/amsterdam/appartement-40717299-brouwersgracht-138-a/?navigateSource=resultlist,124,1e3,3,124,1013,4.889304699999999,52.3803973
Bolestein 254 1081 EB Amsterdam,https://www.funda.nl/koop/amsterdam/appartement-40717190-bolestein-254/?navigateSource=resultlist,93,415,4,93,1081,4.858233600000001,52.3257468
Jacob Burggraafstraat 78 1018 WA Amsterdam,https://www.funda.nl/koop/amsterdam/appartement-40716412-jacob-burggraafstraat-78/?navigateSource=resultlist,100,475,2,100,1018,4.9229265,52.3717659
Bennebroekstraat 36 bg 1058 LM Amsterdam,https://www.funda.nl/koop/amsterdam/appartement-40715246-bennebroekstraat-36-bg/?navigateSource=resultlist,70,450,3,70,1058,4.8470625,52.3529384
Wodanstraat 16 1076 CD Amsterdam,https://www.funda.nl/koop/amsterdam/appartement-40762821-wodanstraat-16/?navigateSource=resultlist,145,1200,5,145,1076,4.861209,52.3432863
Leeuwendalersweg 594 1061 BH Amsterdam,https://www.funda.nl/koop/amsterdam/appartement-40604022-leeuwendalersweg-594/?navigateSource=resultlist,112,475,5,112,1061,4.8382068,52.3774927
Joos Banckersplantsoen 31 +PP 1056 LC Amsterdam,https://www.funda.nl/koop/amsterdam/appartement-40600822-joos-banckersplantsoen-31-pp/?navigateSource=resultlist,111,600,4,111,1056,4.8561537,52.3757814
Frans Halsstraat 29 (I) 1072 BK Amsterdam,https://www.funda.nl/koop/amsterdam/appartement-40607978-frans-halsstraat-29-i/?navigateSource=resultlist,90,575,4,90,1072,4.8889646,52.3571666
Prinsengracht 341 III 1016 HK Amsterdam,https://www.funda.nl/koop/amsterdam/appartement-40681997-prinsengracht-341-iii/?navigateSource=resultlist,53,495,2,53,1016,4.8832525,52.3723533
Rubensstraat 72 2 1077 NA Amsterdam,https://www.funda.nl/koop/amsterdam/appartement-40460850-rubensstraat-72-2/?navigateSource=resultlist,224,1500,7,224,1077,4.8736244,52.34593229999999
Lijnbaansgracht 369 D 1017 XB Amsterdam,https://www.funda.nl/koop/amsterdam/appartement-40730413-lijnbaansgracht-369-d/?navigateSource=resultlist,113,725,1,113,1017,4.8944376,52.3600297
Courbetstraat 9 III 1077 ZP Amsterdam,https://www.funda.nl/koop/amsterdam/appartement-40739480-courbetstraat-9-iii/?navigateSource=resultlist,100,649,4,100,1077,4.8706934,52.3450421
Elandsgracht 68 2 1016 TX Amsterdam,https://www.funda.nl/koop/amsterdam/appartement-86178254-elandsgracht-68-2/?navigateSource=resultlist,102,825,3,102,1016,4.8809873,52.3699355
Lindengracht 332 1015 KN Amsterdam,https://www.funda.nl/koop/amsterdam/appartement-40714421-lindengracht-332/?navigateSource=resultlist,75,525,3,75,1015,4.8810435,52.379827
Gillis van Ledenberchstraat 34 E 1052 VH Amsterdam,https://www.funda.nl/koop/amsterdam/appartement-40712665-gillis-van-ledenberchstraat-34-e/?navigateSource=resultlist,175,1e3,4,175,1052,4.8722344,52.3770388
Lumeijstraat 9 III/IV 1056 VS Amsterdam,https://www.funda.nl/koop/amsterdam/appartement-40711158-lumeijstraat-9-iii-iv/?navigateSource=resultlist,174,850,8,174,1056,4.8611954,52.37259419999999
Mercatorplein 36 F 1056 CL Amsterdam,https://www.funda.nl/koop/amsterdam/appartement-40711665-mercatorplein-36-f/?navigateSource=resultlist,90,475,3,90,1056,4.851196,52.3704293
Korte Geuzenstraat 99 hs 1056 KS Amsterdam,https://www.funda.nl/koop/amsterdam/appartement-40759847-korte-geuzenstraat-99-hs/?navigateSource=resultlist,106,475,4,106,1056,4.8649929,52.3709224
Johannes Vermeerstraat 53 3 + 4 1071 DM Amsterdam,https://www.funda.nl/koop/amsterdam/appartement-40759686-johannes-vermeerstraat-53-3-4/?navigateSource=resultlist,132,1150,4,132,1071,4.8842371,52.3559423
Schimmelstraat 18 III 1053 TG Amsterdam,https://www.funda.nl/koop/amsterdam/appartement-40758844-schimmelstraat-18-iii/?navigateSource=resultlist,65,465,3,65,1053,4.8656578,52.3687526
Titus van Rijnstraat 153 +PP 1058 GB Amsterdam,https://www.funda.nl/koop/amsterdam/appartement-40635372-titus-van-rijnstraat-153-pp/?navigateSource=resultlist,85,515,3,85,1058,4.8469558,52.3578511
Westerdoksdijk 325 + P 1013 AD Amsterdam,https://www.funda.nl/koop/amsterdam/appartement-40624247-westerdoksdijk-325-p/?navigateSource=resultlist,75,495,3,75,1013,4.8928658,52.3849294
Borneolaan 191 +PP 1019 HX Amsterdam,https://www.funda.nl/koop/amsterdam/appartement-40611583-borneolaan-191-pp/?navigateSource=resultlist,109,470,3,109,1019,4.9370383,52.3717216
Rubensstraat 26 -1 1077 MR Amsterdam,https://www.funda.nl/koop/amsterdam/appartement-40689330-rubensstraat-26-1/?navigateSource=resultlist,138,965,8,138,1077,4.8733221,52.3491847
Johannes Verhulststraat 92 huis 1071 NK Amsterdam,https://www.funda.nl/koop/amsterdam/appartement-40654501-johannes-verhulststraat-92-huis/?navigateSource=resultlist,268,2450,7,268,1071,4.872480599999999,52.3547556
Andries Copierstraat 72 1061 SE Amsterdam,https://www.funda.nl/koop/amsterdam/appartement-40730143-andries-copierstraat-72/?navigateSource=resultlist,85,345,3,85,1061,4.8370432,52.3670225
Balboaplein 20 1057 VS Amsterdam,https://www.funda.nl/koop/amsterdam/appartement-40716438-balboaplein-20/?navigateSource=resultlist,106,575,4,106,1057,4.8551004,52.3693235
Egelantiersgracht 3 I 1015 RB Amsterdam,https://www.funda.nl/koop/amsterdam/appartement-40758465-egelantiersgracht-3-i/?navigateSource=resultlist,53,375,2,53,1015,4.8840699,52.376407
De Lairessestraat 172 /C 1075 HM Amsterdam,https://www.funda.nl/koop/amsterdam/appartement-40622279-de-lairessestraat-172-c/?navigateSource=resultlist,157,1250,3,157,1075,4.866135799999999,52.3523767
Stadhouderskade 17 G 1054 ES Amsterdam,https://www.funda.nl/koop/amsterdam/appartement-40660186-stadhouderskade-17-g/?navigateSource=resultlist,167,1075,3,167,1054,4.8808498,52.3620665
Realengracht 138 1013 KW Amsterdam,https://www.funda.nl/koop/amsterdam/appartement-40738837-realengracht-138/?navigateSource=resultlist,77,545,2,77,1013,4.8885371,52.3873725
Saenredamstraat 4 -HS 1072 CE Amsterdam,https://www.funda.nl/koop/amsterdam/appartement-40737966-saenredamstraat-4-hs/?navigateSource=resultlist,73,529,4,73,1072,4.8873375,52.3557255
Kea Boumanstraat 66 -A 1095 MA Amsterdam,https://www.funda.nl/koop/amsterdam/appartement-40711904-kea-boumanstraat-66-a/?navigateSource=resultlist,148,800,4,148,1095,4.969927999999999,52.37354209999999
Stadionweg 95 II 1077 SG Amsterdam,https://www.funda.nl/koop/amsterdam/appartement-40711663-stadionweg-95-ii/?navigateSource=resultlist,103,675,5,103,1077,4.8707819,52.346473
Patroclosstraat 22 HS 1076 NH Amsterdam,https://www.funda.nl/koop/amsterdam/appartement-40718165-patroclosstraat-22-hs/?navigateSource=resultlist,74,500,3,74,1076,4.866181,52.3447733
Achillesstraat 94 IV 1076 RH Amsterdam,https://www.funda.nl/koop/amsterdam/appartement-40717099-achillesstraat-94-iv/?navigateSource=resultlist,77,600,4,77,1076,4.8640781,52.3453041
Amstelvlietstraat 209 1096 GG Amsterdam,https://www.funda.nl/koop/amsterdam/appartement-40750090-amstelvlietstraat-209/?navigateSource=resultlist,180,950,5,180,1096,4.9199297,52.3384787
Valeriusstraat 137 3 1075 ET Amsterdam,https://www.funda.nl/koop/amsterdam/appartement-86083988-valeriusstraat-137-3/?navigateSource=resultlist,155,1250,4,155,1075,4.8658294,52.3532595
Da Costakade 171 -II 1053 WX Amsterdam,https://www.funda.nl/koop/amsterdam/appartement-40627116-da-costakade-171-ii/?navigateSource=resultlist,83,550,3,83,1053,4.874071,52.367496
Oudezijds Voorburgwal 330 C 1012 GM Amsterdam,https://www.funda.nl/koop/amsterdam/appartement-40614813-oudezijds-voorburgwal-330-c/?navigateSource=resultlist,85,775,3,85,1012,4.8940097,52.36946500000001
Herengracht 73 A 1015 BD Amsterdam,https://www.funda.nl/koop/amsterdam/appartement-40601109-herengracht-73-a/?navigateSource=resultlist,100,697.5,3,100,1015,4.8898091,52.3771488
Admiraal De Ruijterweg 349 II 1055 MA Amsterdam,https://www.funda.nl/koop/amsterdam/appartement-86056495-admiraal-de-ruijterweg-349-ii/?navigateSource=resultlist,75,375,3,75,1055,4.8532628,52.3813385
Govert Flinckstraat 237 A 1073 BW Amsterdam,https://www.funda.nl/koop/amsterdam/appartement-40683908-govert-flinckstraat-237-a/?navigateSource=resultlist,106,875,4,106,1073,4.8971844,52.3560126
Graaf Florisstraat 25 III 1091 TE Amsterdam,https://www.funda.nl/koop/amsterdam/appartement-40547840-graaf-florisstraat-25-iii/?navigateSource=resultlist,108,600,3,108,1091,4.912535099999999,52.3525488
Waterlandplein 18 A 1024 LW Amsterdam,https://www.funda.nl/koop/amsterdam/appartement-40587133-waterlandplein-18-a/?navigateSource=resultlist,112,499,3,112,1024,4.954871,52.3921003
Westerdoksdijk 605 1013 BX Amsterdam,https://www.funda.nl/koop/amsterdam/appartement-40744178-westerdoksdijk-605/?navigateSource=resultlist,251,945,4,251,1013,4.892238000000001,52.387147
Niasstraat 40 B 1095 VC Amsterdam,https://www.funda.nl/koop/amsterdam/appartement-86195148-niasstraat-40-b/?navigateSource=resultlist,82,395,4,82,1095,4.9437738,52.3648354
Havikshorst 81 1083 TP Amsterdam,https://www.funda.nl/koop/amsterdam/appartement-86193806-havikshorst-81/?navigateSource=resultlist,92,417,4,92,1083,4.885433799999999,52.3318871
Solebaystraat 82 3 1055 ZT Amsterdam,https://www.funda.nl/koop/amsterdam/appartement-40714116-solebaystraat-82-3/?navigateSource=resultlist,50,275,3,50,1055,4.854594,52.384241
Van Tuyll van Serooskerkenweg 79 1 1076 JG Amsterdam,https://www.funda.nl/koop/amsterdam/appartement-40714189-van-tuyll-van-serooskerkenweg-79-1/?navigateSource=resultlist,70,475,3,70,1076,4.860364,52.34413
Streefkerkstraat 24 1107 LP Amsterdam,https://www.funda.nl/koop/amsterdam/appartement-86175777-streefkerkstraat-24/?navigateSource=resultlist,65,170,3,65,1107,4.9860242,52.2937853
Leusdenhof 260 1108 DL Amsterdam,https://www.funda.nl/koop/amsterdam/appartement-40793609-leusdenhof-260/?navigateSource=resultlist,86,250,4,86,1108,4.979334199999999,52.3072081
Leonardostraat 11 I 1077 ET Amsterdam,https://www.funda.nl/koop/amsterdam/appartement-40751802-leonardostraat-11-i/?navigateSource=resultlist,135,925,5,135,1077,4.868393,52.3488814
Oudezijds Voorburgwal 330 A 1012 GM Amsterdam,https://www.funda.nl/koop/amsterdam/appartement-40614757-oudezijds-voorburgwal-330-a/?navigateSource=resultlist,182,1650,6,182,1012,4.8940097,52.36946500000001
Frans van Mierisstraat 105 II 1071 RP Amsterdam,https://www.funda.nl/koop/amsterdam/appartement-40608448-frans-van-mierisstraat-105-ii/?navigateSource=resultlist,225,1775,5,225,1071,4.8794325,52.3537737
Goeman Borgesiusstraat 4 - K 1067 LN Amsterdam,https://www.funda.nl/koop/amsterdam/appartement-40725962-goeman-borgesiusstraat-4-k/?navigateSource=resultlist,90,340,3,90,1067,4.799977999999999,52.3771223
Goeman Borgesiusstraat 4 H 1067 LN Amsterdam,https://www.funda.nl/koop/amsterdam/appartement-40725964-goeman-borgesiusstraat-4-h/?navigateSource=resultlist,99,360,3,99,1067,4.799977999999999,52.3771223
Goeman Borgesiusstraat 4 B 1067 LN Amsterdam,https://www.funda.nl/koop/amsterdam/appartement-40725851-goeman-borgesiusstraat-4-b/?navigateSource=resultlist,99,360,3,99,1067,4.799977999999999,52.3771223
Gustav Mahlerlaan 991 1082 MK Amsterdam,https://www.funda.nl/koop/amsterdam/appartement-40540672-gustav-mahlerlaan-991/?navigateSource=resultlist,241,2350,5,241,1082,4.869693,52.336633
Berthold Brechtstraat 623 1102 RS Amsterdam,https://www.funda.nl/koop/amsterdam/appartement-86191182-berthold-brechtstraat-623/?navigateSource=resultlist,58,169,3,58,1102,4.9438327,52.3178028
Overtoom 262 -huis 1054 JB Amsterdam,https://www.funda.nl/koop/amsterdam/appartement-40614026-overtoom-262-huis/?navigateSource=resultlist,210,1400,7,210,1054,4.8694362,52.361415
Eerste Leliedwarsstraat 27 1015 SZ Amsterdam,https://www.funda.nl/koop/amsterdam/appartement-40623851-eerste-leliedwarsstraat-27/?navigateSource=resultlist,114,950,5,114,1015,4.882986799999999,52.375423
Frederiksplein 49 A 1017 XL Amsterdam,https://www.funda.nl/koop/amsterdam/appartement-40696233-frederiksplein-49-a/?navigateSource=resultlist,172,1990,5,172,1017,4.9012014,52.3603722
Jan de Jonghkade 13 1063 MH Amsterdam,https://www.funda.nl/koop/amsterdam/appartement-40744534-jan-de-jonghkade-13/?navigateSource=resultlist,95,339,3,95,1063,4.8256668,52.3792448
Maria Austriastraat 93 1087 EK Amsterdam,https://www.funda.nl/koop/amsterdam/appartement-40718290-maria-austriastraat-93/?navigateSource=resultlist,92,395,3,92,1087,4.9961832,52.3564678
President Allendelaan 113 1068 VM Amsterdam,https://www.funda.nl/koop/amsterdam/appartement-40682022-president-allendelaan-113/?navigateSource=resultlist,113,439,4,113,1068,4.8080923,52.3665503
Van Nijenrodeweg 315 1082 HB Amsterdam,https://www.funda.nl/koop/amsterdam/appartement-40719924-van-nijenrodeweg-315/?navigateSource=resultlist,85,395,3,85,1082,4.8785146,52.3275614
Ruyschstraat 77 4 1091 BX Amsterdam,https://www.funda.nl/koop/amsterdam/appartement-40680555-ruyschstraat-77-4/?navigateSource=resultlist,62,375,2,62,1091,4.9119244,52.35804779999999
Haarlemmerstraat 12 -II 1013 ER Amsterdam,https://www.funda.nl/koop/amsterdam/appartement-40533290-haarlemmerstraat-12-ii/?navigateSource=resultlist,85,550,3,85,1013,4.8939165,52.3794971
Oeverpad 194 1068 PH Amsterdam,https://www.funda.nl/koop/amsterdam/appartement-40725563-oeverpad-194/?navigateSource=resultlist,168,550,4,168,1068,4.8081086,52.36502470000001
Tolstraat 2 B 1073 SB Amsterdam,https://www.funda.nl/koop/amsterdam/appartement-40623667-tolstraat-2-b/?navigateSource=resultlist,79,509,3,79,1073,4.8996683,52.3515939
Arubastraat 15 2 1058 VD Amsterdam,https://www.funda.nl/koop/amsterdam/appartement-40611066-arubastraat-15-2/?navigateSource=resultlist,137,865,4,137,1058,4.8525108,52.3599956
Amstelveenseweg 52 -I 1075 XH Amsterdam,https://www.funda.nl/koop/amsterdam/appartement-40855355-amstelveenseweg-52-i/?navigateSource=resultlist,56,325,3,56,1075,4.8547654,52.3561685
Waalstraat 74 hs 1079 EA Amsterdam,https://www.funda.nl/koop/amsterdam/appartement-40733578-waalstraat-74-hs/?navigateSource=resultlist,100,650,3,100,1079,4.9011036,52.3439507
Crynssenstraat 7 II 1058 XT Amsterdam,https://www.funda.nl/koop/amsterdam/appartement-40731561-crynssenstraat-7-ii/?navigateSource=resultlist,54,300,3,54,1058,4.856047999999999,52.36162580000001
Langswater 272 1069 EC Amsterdam,https://www.funda.nl/koop/amsterdam/appartement-40710386-langswater-272/?navigateSource=resultlist,70,199.5,3,70,1069,4.7896385,52.3553947
Lindengracht 239 H 1015 KH Amsterdam,https://www.funda.nl/koop/amsterdam/appartement-40716382-lindengracht-239-h/?navigateSource=resultlist,96,595,4,96,1015,4.8809881,52.3795392
Pieter Calandlaan 700 1060 TW Amsterdam,https://www.funda.nl/koop/amsterdam/appartement-40525987-pieter-calandlaan-700/?navigateSource=resultlist,178,450,3,178,1060,4.786353,52.3497876
Elandsstraat 37 1016 RX Amsterdam,https://www.funda.nl/koop/amsterdam/appartement-40856203-elandsstraat-37/?navigateSource=resultlist,110,700,4,110,1016,4.881299,52.3705647
Oudezijds Voorburgwal 330 B 1012 GM Amsterdam,https://www.funda.nl/koop/amsterdam/appartement-40614860-oudezijds-voorburgwal-330-b/?navigateSource=resultlist,85,785,3,85,1012,4.8940097,52.36946500000001
Minervalaan 89 II 1077 NT Amsterdam,https://www.funda.nl/koop/amsterdam/appartement-40672309-minervalaan-89-ii/?navigateSource=resultlist,142,995,7,142,1077,4.873126099999999,52.3449652
Bentinckstraat 29 A 1051 GD Amsterdam,https://www.funda.nl/koop/amsterdam/appartement-40734465-bentinckstraat-29-a/?navigateSource=resultlist,62,389,3,62,1051,4.8743455,52.3837079
Oostelijke Handelskade 855 + PP 1019 BW Amsterdam,https://www.funda.nl/koop/amsterdam/appartement-40623215-oostelijke-handelskade-855-pp/?navigateSource=resultlist,92,550,3,92,1019,4.9310898,52.3752114
Von Zesenstraat 194 1093 BJ Amsterdam,https://www.funda.nl/koop/amsterdam/appartement-40665182-von-zesenstraat-194/?navigateSource=resultlist,50,300,2,50,1093,4.9250935,52.3639102
Ben van Meerendonkstraat 10 1087 LE Amsterdam,https://www.funda.nl/koop/amsterdam/appartement-40665068-ben-van-meerendonkstraat-10/?navigateSource=resultlist,115,475,4,115,1087,5.006966100000001,52.351687
Meer en Vaart 68 B 1068 ZZ Amsterdam,https://www.funda.nl/koop/amsterdam/appartement-40857179-meer-en-vaart-68-b/?navigateSource=resultlist,117,375,4,117,1068,4.8042726,52.364922
Bestevâerstraat 174 II 1055 TS Amsterdam,https://www.funda.nl/koop/amsterdam/appartement-86056416-bestevaerstraat-174-ii/?navigateSource=resultlist,50,250,3,50,1055,4.858581,52.378487
Spuistraat 297 B 1012 VS Amsterdam,https://www.funda.nl/koop/amsterdam/appartement-40595491-spuistraat-297-b/?navigateSource=resultlist,116,850,4,116,1012,4.8889187,52.3691021
Loenermark 218 +PP 1025 SV Amsterdam,https://www.funda.nl/koop/amsterdam/appartement-40710553-loenermark-218-pp/?navigateSource=resultlist,92,275,4,92,1025,4.930009,52.398379
Makassarstraat 52 III 1095 TA Amsterdam,https://www.funda.nl/koop/amsterdam/appartement-40686907-makassarstraat-52-iii/?navigateSource=resultlist,93,495,4,93,1095,4.9403443,52.3642383
Albert Cuypstraat 95 I 1072 CP Amsterdam,https://www.funda.nl/koop/amsterdam/appartement-40562157-albert-cuypstraat-95-i/?navigateSource=resultlist,80,497.5,4,80,1072,4.8913191,52.3553162
Gustav Mahlerlaan 561 A +ppl 1082 MK Amsterdam,https://www.funda.nl/koop/amsterdam/appartement-40451340-gustav-mahlerlaan-561-a-ppl/?navigateSource=resultlist,180,1500,3,180,1082,4.872556599999999,52.3366791
Grote Bickersstraat 100 1013 KS Amsterdam,https://www.funda.nl/koop/amsterdam/appartement-86115766-grote-bickersstraat-100/?navigateSource=resultlist,248,2450,4,248,1013,4.8900131,52.3867406
Nieuwezijds Voorburgwal 288 IV 1012 RT Amsterdam,https://www.funda.nl/koop/amsterdam/appartement-40739971-nieuwezijds-voorburgwal-288-iv/?navigateSource=resultlist,68,389,2,68,1012,4.889931799999999,52.3709026
Albert Cuypstraat 23 hs 1072 CK Amsterdam,https://www.funda.nl/koop/amsterdam/appartement-86172687-albert-cuypstraat-23-hs/?navigateSource=resultlist,57,390,3,57,1072,4.8875242,52.3547249
Herengracht 253 hs 1016 BH Amsterdam,https://www.funda.nl/koop/amsterdam/appartement-40422031-herengracht-253-hs/?navigateSource=resultlist,202,1595,6,202,1016,4.8874175,52.3720168
Koggestraat 7 L 1012 TA Amsterdam,https://www.funda.nl/koop/amsterdam/appartement-40736661-koggestraat-7-l/?navigateSource=resultlist,69,345,2,69,1012,4.893172799999999,52.37737070000001
Hoofdweg 118 III-IV 1058 BH Amsterdam,https://www.funda.nl/koop/amsterdam/appartement-40704218-hoofdweg-118-iii-iv/?navigateSource=resultlist,116,625,5,116,1058,4.8535586,52.36320490000001
Ruysdaelkade 211 bv 1072 AW Amsterdam,https://www.funda.nl/koop/amsterdam/appartement-40636904-ruysdaelkade-211-bv/?navigateSource=resultlist,216,1050,12,216,1072,4.886924,52.3512619
Prinsengracht 1035 -D 1017 KP Amsterdam,https://www.funda.nl/koop/amsterdam/appartement-40441293-prinsengracht-1035-d/?navigateSource=resultlist,148,1e3,3,148,1017,4.895117,52.36192699999999
Prinsengracht 1031 -C 1017 KP Amsterdam,https://www.funda.nl/koop/amsterdam/appartement-40441157-prinsengracht-1031-c/?navigateSource=resultlist,127,850,3,127,1017,4.895093,52.36193
Reinwardtstraat 39 a-hs 1093 GX Amsterdam,https://www.funda.nl/koop/amsterdam/appartement-40856479-reinwardtstraat-39-a-hs/?navigateSource=resultlist,71,360,3,71,1093,4.927309699999999,52.3611506
Stadhouderskade 62 -4 1072 AD Amsterdam,https://www.funda.nl/koop/amsterdam/appartement-86984598-stadhouderskade-62-4/?navigateSource=resultlist,96,675,3,96,1072,4.8892948999999986,52.358428
Ten Katestraat 39 IV 1053 BX Amsterdam,https://www.funda.nl/koop/amsterdam/appartement-40857070-ten-katestraat-39-iv/?navigateSource=resultlist,59,350,3,59,1053,4.8669622,52.3670214
Kraaienplein 24 1021 EG Amsterdam,https://www.funda.nl/koop/amsterdam/appartement-86192297-kraaienplein-24/?navigateSource=resultlist,57,290,3,57,1021,4.9152565,52.386026
Brouwersgracht 136 A 1013 HA Amsterdam,https://www.funda.nl/koop/amsterdam/appartement-40717202-brouwersgracht-136-a/?navigateSource=resultlist,118,1100,3,118,1013,4.8892766,52.3803832
Johanna ter Meulenplein 46 1018 MM Amsterdam,https://www.funda.nl/koop/amsterdam/appartement-40704279-johanna-ter-meulenplein-46/?navigateSource=resultlist,63,395,2,63,1018,4.923263500000001,52.3648198
Kruislaan 194 1098 SK Amsterdam,https://www.funda.nl/koop/amsterdam/appartement-40855607-kruislaan-194/?navigateSource=resultlist,99,465,3,99,1098,4.9424192,52.3486993
Oude Nieuwstraat 13 III 1012 TD Amsterdam,https://www.funda.nl/koop/amsterdam/appartement-40730231-oude-nieuwstraat-13-iii/?navigateSource=resultlist,92,500,2,92,1012,4.892418,52.376554
Het Hoogt 307 1025 GZ Amsterdam,https://www.funda.nl/koop/amsterdam/appartement-40739727-het-hoogt-307/?navigateSource=resultlist,93,319,4,93,1025,4.9382798,52.3970535
Waalstraat 76 1079 EA Amsterdam,https://www.funda.nl/koop/amsterdam/appartement-40713169-waalstraat-76/?navigateSource=resultlist,132,1100,4,132,1079,4.9011375,52.3439095
Burgemeester Hogguerstraat 505 1064 CV Amsterdam,https://www.funda.nl/koop/amsterdam/appartement-40713866-burgemeester-hogguerstraat-505/?navigateSource=resultlist,78,289,4,78,1064,4.829311199999999,52.37207189999999
Sarphatistraat 62 E 1018 GP Amsterdam,https://www.funda.nl/koop/amsterdam/appartement-86176334-sarphatistraat-62-e/?navigateSource=resultlist,92,685,3,92,1018,4.908988,52.3611769
Prinsengracht 729 B 1017 JX Amsterdam,https://www.funda.nl/koop/amsterdam/appartement-40752413-prinsengracht-729-b/?navigateSource=resultlist,111,820,2,111,1017,4.8857402,52.364514
Rondeel 104 1083 MG Amsterdam,https://www.funda.nl/koop/amsterdam/appartement-40624864-rondeel-104/?navigateSource=resultlist,95,425,3,95,1083,4.8806994,52.3276517
Langswater 432 1069 ED Amsterdam,https://www.funda.nl/koop/amsterdam/appartement-86081151-langswater-432/?navigateSource=resultlist,72,215,4,72,1069,4.7891393,52.3564977
Lauriergracht 108 III 1016 RP Amsterdam,https://www.funda.nl/koop/amsterdam/appartement-49399960-lauriergracht-108-iii/?navigateSource=resultlist,132,825,4,132,1016,4.879718599999999,52.3712385
Albert Cuypstraat 194 III+IV 1073 BL Amsterdam,https://www.funda.nl/koop/amsterdam/appartement-40712781-albert-cuypstraat-194-iii-iv/?navigateSource=resultlist,95,545,5,95,1073,4.8956857,52.355915
Cornelis Vermuydenstraat 82 1018 RN Amsterdam,https://www.funda.nl/koop/amsterdam/appartement-40711516-cornelis-vermuydenstraat-82/?navigateSource=resultlist,65,350,2,65,1018,4.9268205,52.3679607
Rijnstraat 52 II 1078 RD Amsterdam,https://www.funda.nl/koop/amsterdam/appartement-40695535-rijnstraat-52-ii/?navigateSource=resultlist,74,389,3,74,1078,4.9047841,52.3468115
Spiegelgracht 31 /bv 1017 JP Amsterdam,https://www.funda.nl/koop/amsterdam/appartement-40680452-spiegelgracht-31-bv/?navigateSource=resultlist,221,2275,6,221,1017,4.8874229,52.3615953
Waterlandplein 22 P2 1024 LW Amsterdam,https://www.funda.nl/koop/amsterdam/appartement-40737370-waterlandplein-22-p2/?navigateSource=resultlist,137,585,5,137,1024,4.9550502,52.3920831
Karel du Jardinstraat 18 1 1072 SJ Amsterdam,https://www.funda.nl/koop/amsterdam/appartement-40737477-karel-du-jardinstraat-18-1/?navigateSource=resultlist,78,450,4,78,1072,4.893701099999999,52.3510803
Van Hilligaertstraat 8 B 1072 JZ Amsterdam,https://www.funda.nl/koop/amsterdam/appartement-86173965-van-hilligaertstraat-8-b/?navigateSource=resultlist,72,449,3,72,1072,4.8871076,52.3495688
Oudezijds Voorburgwal 85 A 1012 EL Amsterdam,https://www.funda.nl/koop/amsterdam/appartement-86076933-oudezijds-voorburgwal-85-a/?navigateSource=resultlist,55,340,2,55,1012,4.8985607,52.3736481
Derde Egelantiersdwarsstraat 13 -HS 1015 SE Amsterdam,https://www.funda.nl/koop/amsterdam/appartement-40855352-derde-egelantiersdwarsstraat-13-hs/?navigateSource=resultlist,115,900,4,115,1015,4.8804878,52.3760653
Roerstraat 39 2 1078 LJ Amsterdam,https://www.funda.nl/koop/amsterdam/appartement-40855578-roerstraat-39-2/?navigateSource=resultlist,71,495,3,71,1078,4.8990586,52.3446289
Marnixstraat 331 hs 1016 TC Amsterdam,https://www.funda.nl/koop/amsterdam/appartement-40744711-marnixstraat-331-hs/?navigateSource=resultlist,134,800,4,134,1016,4.8761622,52.3727703
Hofmeyrstraat 4 -D 1091 LZ Amsterdam,https://www.funda.nl/koop/amsterdam/appartement-40733740-hofmeyrstraat-4-d/?navigateSource=resultlist,56,330,3,56,1091,4.9151407,52.3515538
Prinsengracht 415 B 1016 HM Amsterdam,https://www.funda.nl/koop/amsterdam/appartement-40732163-prinsengracht-415-b/?navigateSource=resultlist,120,900,3,120,1016,4.8831994,52.3710552
Venetiëhof 141 1019 NC Amsterdam,https://www.funda.nl/koop/amsterdam/appartement-40738692-venetiehof-141/?navigateSource=resultlist,126,650,4,126,1019,4.948000299999999,52.3768857
Eierlandstraat 15 1024 GD Amsterdam,https://www.funda.nl/koop/amsterdam/appartement-40737844-eierlandstraat-15/?navigateSource=resultlist,50,175,2,50,1024,4.9595015,52.3949301
Louis Davidsstraat 48 1068 SJ Amsterdam,https://www.funda.nl/koop/amsterdam/appartement-40737460-louis-davidsstraat-48/?navigateSource=resultlist,58,215,2,58,1068,4.8099208,52.3523047
Bonairestraat 82 2 1058 XL Amsterdam,https://www.funda.nl/koop/amsterdam/appartement-40736755-bonairestraat-82-2/?navigateSource=resultlist,86,450,4,86,1058,4.8554112,52.3625751
Willem Dreesplantsoen 109 1067 VG Amsterdam,https://www.funda.nl/koop/amsterdam/appartement-40736774-willem-dreesplantsoen-109/?navigateSource=resultlist,69,250,3,69,1067,4.7902151,52.3812734
Bonairestraat 52 III 1058 XJ Amsterdam,https://www.funda.nl/koop/amsterdam/appartement-40713766-bonairestraat-52-iii/?navigateSource=resultlist,68,389,3,68,1058,4.8558102,52.36084220000001
Archimedesweg 74 H 1098 JS Amsterdam,https://www.funda.nl/koop/amsterdam/appartement-40712870-archimedesweg-74-h/?navigateSource=resultlist,92,650,4,92,1098,4.9394475,52.3556839
Admiraal De Ruijterweg 172 -4 1056 GX Amsterdam,https://www.funda.nl/koop/amsterdam/appartement-86176233-admiraal-de-ruijterweg-172-4/?navigateSource=resultlist,82,400,3,82,1056,4.8586801,52.3751158
Sanderijnstraat 58 H 1055 BW Amsterdam,https://www.funda.nl/koop/amsterdam/appartement-40711762-sanderijnstraat-58-h/?navigateSource=resultlist,72,425,3,72,1055,4.8504468,52.3781711
Pijnackerstraat 8 -3 1072 JT Amsterdam,https://www.funda.nl/koop/amsterdam/appartement-86175235-pijnackerstraat-8-3/?navigateSource=resultlist,77,475,3,77,1072,4.8897811,52.35033689999999
Prinseneiland 31 C 1013 LL Amsterdam,https://www.funda.nl/koop/amsterdam/appartement-40719039-prinseneiland-31-c/?navigateSource=resultlist,95,795,3,95,1013,4.8877153,52.3864545
Zaanstraat 367 1013 SG Amsterdam,https://www.funda.nl/koop/amsterdam/appartement-40704620-zaanstraat-367/?navigateSource=resultlist,54,300,3,54,1013,4.8709256,52.3923302
Vianenstraat 132 1106 DE Amsterdam,https://www.funda.nl/koop/amsterdam/appartement-40703356-vianenstraat-132/?navigateSource=resultlist,65,185,3,65,1106,4.9839435,52.2985507
Groetstraat 190 1024 VE Amsterdam,https://www.funda.nl/koop/amsterdam/appartement-40762106-groetstraat-190/?navigateSource=resultlist,62,220,3,62,1024,4.9509473,52.3938024
Van Bossestraat 50 -2-3-4 1051 KA Amsterdam,https://www.funda.nl/koop/amsterdam/appartement-40762182-van-bossestraat-50-2-3-4/?navigateSource=resultlist,125,725,5,125,1051,4.868609,52.3809456
Maassluisstraat 368 1062 GR Amsterdam,https://www.funda.nl/koop/amsterdam/appartement-40751153-maassluisstraat-368/?navigateSource=resultlist,81,325,3,81,1062,4.8352694,52.3487586
Haarlemmerweg 55 III 1051 KP Amsterdam,https://www.funda.nl/koop/amsterdam/appartement-40637784-haarlemmerweg-55-iii/?navigateSource=resultlist,53,335,3,53,1051,4.8770402,52.3854061
Alkmaarstraat 105 1024 TL Amsterdam,https://www.funda.nl/koop/amsterdam/appartement-40637680-alkmaarstraat-105/?navigateSource=resultlist,62,220,3,62,1024,4.950749399999999,52.3945027
Planciusstraat 21 * 1013 MD Amsterdam,https://www.funda.nl/koop/amsterdam/appartement-40621167-planciusstraat-21/?navigateSource=resultlist,153,995,4,153,1013,4.8852753,52.3871285
Paramariboplein 2 -2 1058 AS Amsterdam,https://www.funda.nl/koop/amsterdam/appartement-40628012-paramariboplein-2-2/?navigateSource=resultlist,97,525,6,97,1058,4.8548494,52.3593221
Vrolikstraat 26 D 1091 VG Amsterdam,https://www.funda.nl/koop/amsterdam/appartement-40613849-vrolikstraat-26-d/?navigateSource=resultlist,115,635,4,115,1091,4.9149821,52.3552421
Churchill-laan 148 /hs 1078 ER Amsterdam,https://www.funda.nl/koop/amsterdam/appartement-40692627-churchill-laan-148-hs/?navigateSource=resultlist,148,1545,3,148,1078,4.894235,52.3472989
Rijnsburgstraat 16 huis 1059 AV Amsterdam,https://www.funda.nl/koop/amsterdam/appartement-40697131-rijnsburgstraat-16-huis/?navigateSource=resultlist,97,499,6,97,1059,4.8506991,52.3483801
Nieuwe Spiegelstraat 1017 AA Amsterdam,https://www.funda.nl/koop/amsterdam/appartement-40686971-nieuwe-spiegelstraat/?navigateSource=resultlist,360,3680,8,360,1017,4.8892666,52.3640896
Iepenplein 76 1091 JR Amsterdam,https://www.funda.nl/koop/amsterdam/appartement-40674672-iepenplein-76/?navigateSource=resultlist,90,445,4,90,1091,4.9143425,52.35603039999999
Looiersgracht 124 B 1016 VT Amsterdam,https://www.funda.nl/koop/amsterdam/appartement-40673753-looiersgracht-124-b/?navigateSource=resultlist,124,995,3,124,1016,4.8795566,52.3681354
Vespuccistraat 48 H 1056 SM Amsterdam,https://www.funda.nl/koop/amsterdam/appartement-40676380-vespuccistraat-48-h/?navigateSource=resultlist,55,350,2,55,1056,4.8536906,52.37107080000001
Sloterkade 4 -h 1058 HD Amsterdam,https://www.funda.nl/koop/amsterdam/appartement-40653952-sloterkade-4-h/?navigateSource=resultlist,108,750,4,108,1058,4.8541549,52.3575812
Amstelveenseweg 980 A 1081 JR Amsterdam,https://www.funda.nl/koop/amsterdam/appartement-40656228-amstelveenseweg-980-a/?navigateSource=resultlist,148,925,4,148,1081,4.8572241,52.3255266
Kruitberg 4026 1104 CA Amsterdam,https://www.funda.nl/koop/amsterdam/appartement-86193781-kruitberg-4026/?navigateSource=resultlist,98,210,3,98,1104,4.9762888,52.31783009999999
Karel du Jardinstraat 39 1 1072 SG Amsterdam,https://www.funda.nl/koop/amsterdam/appartement-40714950-karel-du-jardinstraat-39-1/?navigateSource=resultlist,69,400,3,69,1072,4.8942219,52.3513593
Overtoom 544 C 1054 LM Amsterdam,https://www.funda.nl/koop/amsterdam/appartement-86089738-overtoom-544-c/?navigateSource=resultlist,104,685,5,104,1054,4.8575529,52.358473
Beulingstraat 4 F 1017 BA Amsterdam,https://www.funda.nl/koop/amsterdam/appartement-40625559-beulingstraat-4-f/?navigateSource=resultlist,68,415,2,68,1017,4.887652399999999,52.36810819999999
Beethovenstraat 156 -1 1077 JV Amsterdam,https://www.funda.nl/koop/amsterdam/appartement-40856268-beethovenstraat-156-1/?navigateSource=resultlist,127,649,4,127,1077,4.876365799999999,52.34573469999999
Vespuccistraat 51 hs 1056 SH Amsterdam,https://www.funda.nl/koop/amsterdam/appartement-40856141-vespuccistraat-51-hs/?navigateSource=resultlist,50,309,3,50,1056,4.8533094,52.3710022
's-Gravendijkdreef 257 1104 DN Amsterdam,https://www.funda.nl/koop/amsterdam/appartement-40856933-s-gravendijkdreef-257/?navigateSource=resultlist,81,250,3,81,1104,4.9836119,52.3194445
Wanningstraat 14 C 1071 LB Amsterdam,https://www.funda.nl/koop/amsterdam/appartement-40856529-wanningstraat-14-c/?navigateSource=resultlist,96,895,4,96,1071,4.877548399999999,52.3563439
Crynssenstraat 76 Hs 1058 XZ Amsterdam,https://www.funda.nl/koop/amsterdam/appartement-40856526-crynssenstraat-76-hs/?navigateSource=resultlist,60,275,3,60,1058,4.8562554,52.3636035
Keizersgracht 48 A 1015 CR Amsterdam,https://www.funda.nl/koop/amsterdam/appartement-86219507-keizersgracht-48-a/?navigateSource=resultlist,76,699.5,3,76,1015,4.8883868,52.37853699999999
Gaasterlandstraat 40 1079 RH Amsterdam,https://www.funda.nl/koop/amsterdam/appartement-40744708-gaasterlandstraat-40/?navigateSource=resultlist,108,780,4,108,1079,4.8955942,52.3378598
Nieuwe Keizersgracht 53 H 1018 VC Amsterdam,https://www.funda.nl/koop/amsterdam/appartement-86197415-nieuwe-keizersgracht-53-h/?navigateSource=resultlist,92,749,3,92,1018,4.907113499999999,52.3657535
Osdorper Ban 135 1068 LT Amsterdam,https://www.funda.nl/koop/amsterdam/appartement-86195236-osdorper-ban-135/?navigateSource=resultlist,66,210,3,66,1068,4.803152499999999,52.3624816
Rosy Wertheimstraat 40 1082 MZ Amsterdam,https://www.funda.nl/koop/amsterdam/appartement-40731568-rosy-wertheimstraat-40/?navigateSource=resultlist,94,625,3,94,1082,4.875901799999999,52.3359943
Bartholomeus Ruloffsstraat 5 2 1071 WJ Amsterdam,https://www.funda.nl/koop/amsterdam/appartement-40731459-bartholomeus-ruloffsstraat-5-2/?navigateSource=resultlist,168,1075,5,168,1071,4.8790075,52.3525298
Kanaalstraat 106 -III+IV 1054 XM Amsterdam,https://www.funda.nl/koop/amsterdam/appartement-40730155-kanaalstraat-106-iii-iv/?navigateSource=resultlist,69,450,3,69,1054,4.862019,52.3619375
Deurloostraat 66 III 1078 JE Amsterdam,https://www.funda.nl/koop/amsterdam/appartement-40730179-deurloostraat-66-iii/?navigateSource=resultlist,89,535,5,89,1078,4.8900233,52.3465296
Willem van Weldammelaan 125 1082 KT Amsterdam,https://www.funda.nl/koop/amsterdam/appartement-40730048-willem-van-weldammelaan-125/?navigateSource=resultlist,197,1395,4,197,1082,4.875672499999999,52.3297168
Overhoeksparklaan 124 + 2 PP 1031 KC Amsterdam,https://www.funda.nl/koop/amsterdam/appartement-40730730-overhoeksparklaan-124-2-pp/?navigateSource=resultlist,242,2600,5,242,1031,4.9002964,52.3857595
Delistraat 46 hs 1094 CX Amsterdam,https://www.funda.nl/koop/amsterdam/appartement-40739962-delistraat-46-hs/?navigateSource=resultlist,71,475,3,71,1094,4.9337125,52.3652557
Seranggracht 29 1019 PM Amsterdam,https://www.funda.nl/koop/amsterdam/appartement-40739631-seranggracht-29/?navigateSource=resultlist,63,349,2,63,1019,4.932897,52.37750279999999
Anton Verheijstraat 5 II 1077 KS Amsterdam,https://www.funda.nl/koop/amsterdam/appartement-40737890-anton-verheijstraat-5-ii/?navigateSource=resultlist,108,725,4,108,1077,4.875871399999999,52.3435066
Eastonstraat 163 1068 JE Amsterdam,https://www.funda.nl/koop/amsterdam/appartement-86190472-eastonstraat-163/?navigateSource=resultlist,77,275,3,77,1068,4.8139162,52.35662019999999
Groenendaalstraat 41 hs 1058 LE Amsterdam,https://www.funda.nl/koop/amsterdam/appartement-40713844-groenendaalstraat-41-hs/?navigateSource=resultlist,112,575,4,112,1058,4.8488215,52.3531351
Stadionweg 102 A-2 1077 ST Amsterdam,https://www.funda.nl/koop/amsterdam/appartement-40712863-stadionweg-102-a-2/?navigateSource=resultlist,96,675,4,96,1077,4.876477,52.3470411
Van Ostadestraat 484 H 1074 XE Amsterdam,https://www.funda.nl/koop/amsterdam/appartement-40711466-van-ostadestraat-484-h/?navigateSource=resultlist,91,595,5,91,1074,4.9048498,52.3546033
Westerdoksdijk 449 1013 BX Amsterdam,https://www.funda.nl/koop/amsterdam/appartement-40710288-westerdoksdijk-449/?navigateSource=resultlist,160,927.93,5,160,1013,4.8928153,52.3856401
Herengracht 96 A 1015 BS Amsterdam,https://www.funda.nl/koop/amsterdam/appartement-40719221-herengracht-96-a/?navigateSource=resultlist,282,3250,6,282,1015,4.8891579,52.376563
Nieuwe Prinsengracht 80 1 1018 VV Amsterdam,https://www.funda.nl/koop/amsterdam/appartement-40718434-nieuwe-prinsengracht-80-1/?navigateSource=resultlist,61,425,2,61,1018,4.908996,52.363713
Prins Hendrikkade 141 C 1011 AS Amsterdam,https://www.funda.nl/koop/amsterdam/appartement-40717518-prins-hendrikkade-141-c/?navigateSource=resultlist,171,745,4,171,1011,4.9061834,52.3734157
Michelangelostraat 39 boven 1077 BR Amsterdam,https://www.funda.nl/koop/amsterdam/appartement-40717587-michelangelostraat-39-boven/?navigateSource=resultlist,213,1350,7,213,1077,4.8713532,52.34830230000001
Henri Zagwijnstraat 18 I 1077 XR Amsterdam,https://www.funda.nl/koop/amsterdam/appartement-40716938-henri-zagwijnstraat-18-i/?navigateSource=resultlist,105,550,3,105,1077,4.8687549,52.3417737
Ruysdaelstraat 48 D ex_PP 1071 XE Amsterdam,https://www.funda.nl/koop/amsterdam/appartement-40715467-ruysdaelstraat-48-d-ex_pp/?navigateSource=resultlist,96,695,3,96,1071,4.8831577,52.3540413
Argonautenstraat 92 1076 KV Amsterdam,https://www.funda.nl/koop/amsterdam/appartement-40793848-argonautenstraat-92/?navigateSource=resultlist,67,449,3,67,1076,4.8590795,52.3434296
Prinsengracht 487 C 1016 HP Amsterdam,https://www.funda.nl/koop/amsterdam/appartement-86113542-prinsengracht-487-c/?navigateSource=resultlist,95,945,3,95,1016,4.8830398,52.3695896
Adamello 1 1060 NW Amsterdam,https://www.funda.nl/koop/amsterdam/appartement-40759879-adamello-1/?navigateSource=resultlist,70,245,2,70,1060,4.7763274,52.3509407
John Blankensteinstraat 167 -A 1095 MB Amsterdam,https://www.funda.nl/koop/amsterdam/appartement-40621116-john-blankensteinstraat-167-a/?navigateSource=resultlist,149,649,5,149,1095,4.9676075,52.3741345
Bestevâerstraat 50 H 1056 HP Amsterdam,https://www.funda.nl/koop/amsterdam/appartement-40611083-bestevaerstraat-50-h/?navigateSource=resultlist,78,575,3,78,1056,4.859891,52.37438
Admiraal De Ruijterweg 291 III/IV 1055 LW Amsterdam,https://www.funda.nl/koop/amsterdam/appartement-40619693-admiraal-de-ruijterweg-291-iii-iv/?navigateSource=resultlist,154,695,5,154,1055,4.8559857,52.3795964
Geschutswerf 59 1018 AW Amsterdam,https://www.funda.nl/koop/amsterdam/appartement-86079429-geschutswerf-59/?navigateSource=resultlist,164,950,3,164,1018,4.9204227,52.3669027
Johan van Hasseltkade 276 * 1032 LP Amsterdam,https://www.funda.nl/koop/amsterdam/appartement-40604223-johan-van-hasseltkade-276/?navigateSource=resultlist,155,850,4,155,1032,4.9049111,52.39548079999999
Johan van Hasseltkade 276 1032 LP Amsterdam,https://www.funda.nl/koop/amsterdam/appartement-40608530-johan-van-hasseltkade-276/?navigateSource=resultlist,200,1075,5,200,1032,4.9049111,52.39548079999999
Pieter Calandlaan 564 1060 TV Amsterdam,https://www.funda.nl/koop/amsterdam/appartement-40606515-pieter-calandlaan-564/?navigateSource=resultlist,125,399,5,125,1060,4.7869969,52.3499257
Saxen-Weimarlaan 41 D 1075 BZ Amsterdam,https://www.funda.nl/koop/amsterdam/appartement-40694576-saxen-weimarlaan-41-d/?navigateSource=resultlist,187,2195,5,187,1075,4.8576841,52.3521505
Willemsparkweg 100 C 1071 HM Amsterdam,https://www.funda.nl/koop/amsterdam/appartement-40693369-willemsparkweg-100-c/?navigateSource=resultlist,71,625,3,71,1071,4.8733642,52.3568483
Blauwvoetstraat 65 1061 BM Amsterdam,https://www.funda.nl/koop/amsterdam/appartement-40690890-blauwvoetstraat-65/?navigateSource=resultlist,128,525,4,128,1061,4.839588300000001,52.3780251
Nieuwe Uilenburgerstraat 15 F 1011 LM Amsterdam,https://www.funda.nl/koop/amsterdam/appartement-40696336-nieuwe-uilenburgerstraat-15-f/?navigateSource=resultlist,64,435,2,64,1011,4.9063278,52.3709357
Eosstraat 9 hs 1076 DK Amsterdam,https://www.funda.nl/koop/amsterdam/appartement-40683123-eosstraat-9-hs/?navigateSource=resultlist,85,645,3,85,1076,4.8567707,52.34611109999999
Eerste Jacob van Campenstraat 50 H 1072 BH Amsterdam,https://www.funda.nl/koop/amsterdam/appartement-40680697-eerste-jacob-van-campenstraat-50-h/?navigateSource=resultlist,134,750,4,134,1072,4.8896404,52.3573341
Saxen-Weimarlaan 8 A 2 1075 CA Amsterdam,https://www.funda.nl/koop/amsterdam/appartement-40689291-saxen-weimarlaan-8-a-2/?navigateSource=resultlist,87,795,3,87,1075,4.856353299999999,52.3541937
Stadionweg 61 /III 1077 SC Amsterdam,https://www.funda.nl/koop/amsterdam/appartement-40687321-stadionweg-61-iii/?navigateSource=resultlist,150,975,4,150,1077,4.8751104,52.3466317
Wagenaarstraat 495 1093 CN Amsterdam,https://www.funda.nl/koop/amsterdam/appartement-40672712-wagenaarstraat-495/?navigateSource=resultlist,90,399,4,90,1093,4.9296598,52.36388299999999
Johannes Vermeerstraat 50 bov 1071 DT Amsterdam,https://www.funda.nl/koop/amsterdam/appartement-40676572-johannes-vermeerstraat-50-bov/?navigateSource=resultlist,228,1299,8,228,1071,4.8842342,52.3544143
Willemsparkweg 64 huis 1071 HK Amsterdam,https://www.funda.nl/koop/amsterdam/appartement-40663370-willemsparkweg-64-huis/?navigateSource=resultlist,257,1925,7,257,1071,4.875141000000001,52.3573808
Tintorettostraat 5 I + III 1077 RM Amsterdam,https://www.funda.nl/koop/amsterdam/appartement-40660088-tintorettostraat-5-i-iii/?navigateSource=resultlist,152,960,6,152,1077,4.870791,52.3471303
Beethovenstraat 190 III 1077 JX Amsterdam,https://www.funda.nl/koop/amsterdam/appartement-40666079-beethovenstraat-190-iii/?navigateSource=resultlist,161,900,4,161,1077,4.8762548,52.3423008
Leonard Bernsteinstraat 60 C 1082 MR Amsterdam,https://www.funda.nl/koop/amsterdam/appartement-40529556-leonard-bernsteinstraat-60-c/?navigateSource=resultlist,117,899,3,117,1082,4.8724754,52.3359578
Bos en Lommerweg 374 1061 DJ Amsterdam,https://www.funda.nl/koop/amsterdam/appartement-40586867-bos-en-lommerweg-374/?navigateSource=resultlist,191,689,3,191,1061,4.8389317,52.3787111
Grote Bickersstraat 100 1013 KS Amsterdam,https://www.funda.nl/koop/amsterdam/appartement-40460734-grote-bickersstraat-100/?navigateSource=resultlist,248,2450,4,248,1013,4.8900131,52.3867406
Tweede Jan Steenstraat 54 III 1074 CP Amsterdam,https://www.funda.nl/koop/amsterdam/appartement-49333251-tweede-jan-steenstraat-54-iii/?navigateSource=resultlist,59,425,3,59,1074,4.901047699999999,52.3562629
1e Kekerstraat 147 1104 VA Amsterdam,https://www.funda.nl/koop/amsterdam/appartement-86192942-1e-kekerstraat-147/?navigateSource=resultlist,118,275,3,118,1104,4.9814782,52.3137343
Bos en Lommerweg 348 1061 DJ Amsterdam,https://www.funda.nl/koop/amsterdam/appartement-86047470-bos-en-lommerweg-348/?navigateSource=resultlist,107,399,3,107,1061,4.8387195,52.3787453
Mary van der Sluisstraat 276 1095 ME Amsterdam,https://www.funda.nl/koop/amsterdam/appartement-40712007-mary-van-der-sluisstraat-276/?navigateSource=resultlist,108,499,3,108,1095,4.963289,52.37444259999999
Balboastraat 44 HS 1057 VX Amsterdam,https://www.funda.nl/koop/amsterdam/appartement-40856077-balboastraat-44-hs/?navigateSource=resultlist,51,349,3,51,1057,4.853474299999999,52.3690106
Hoofdweg 174 III/IV 1057 DC Amsterdam,https://www.funda.nl/koop/amsterdam/appartement-40739899-hoofdweg-174-iii-iv/?navigateSource=resultlist,92,470,3,92,1057,4.8533889,52.3654788
Ben Viljoenstraat 29 1091 XS Amsterdam,https://www.funda.nl/koop/amsterdam/appartement-40738535-ben-viljoenstraat-29/?navigateSource=resultlist,54,275,3,54,1091,4.915887199999999,52.3529448
Tongelaer 17 II 1083 BV Amsterdam,https://www.funda.nl/koop/amsterdam/appartement-40712989-tongelaer-17-ii/?navigateSource=resultlist,66,340,3,66,1083,4.883995700000001,52.32674
Vierwindenstraat 233 1013 CW Amsterdam,https://www.funda.nl/koop/amsterdam/appartement-40711910-vierwindenstraat-233/?navigateSource=resultlist,88,625,4,88,1013,4.8863613,52.38756069999999
Huidekoperstraat 22 -D 1017 ZM Amsterdam,https://www.funda.nl/koop/amsterdam/appartement-40719385-huidekoperstraat-22-d/?navigateSource=resultlist,74,500,3,74,1017,4.8975157,52.3590636
Orteliusstraat 243 H 1056 NS Amsterdam,https://www.funda.nl/koop/amsterdam/appartement-40718508-orteliusstraat-243-h/?navigateSource=resultlist,64,429,4,64,1056,4.8484080999999994,52.37131
Overtoom 495 IV 1054 LG Amsterdam,https://www.funda.nl/koop/amsterdam/appartement-86113304-overtoom-495-iv/?navigateSource=resultlist,82,539,2,82,1054,4.8575687,52.3581268
Nieuwmarkt 7 E 1011 JP Amsterdam,https://www.funda.nl/koop/amsterdam/appartement-40757277-nieuwmarkt-7-e/?navigateSource=resultlist,56,439,3,56,1011,4.9010833,52.3725051
Gulden Winckelplantsoen 32 -II 1055 EN Amsterdam,https://www.funda.nl/koop/amsterdam/appartement-40647130-gulden-winckelplantsoen-32-ii/?navigateSource=resultlist,51,235,3,51,1055,4.8470892,52.378621
Berenstraat 13 B 1016 GG Amsterdam,https://www.funda.nl/koop/amsterdam/appartement-86090552-berenstraat-13-b/?navigateSource=resultlist,50,375,2,50,1016,4.8837361,52.3703385
Grevelingenstraat 9 2 1078 KM Amsterdam,https://www.funda.nl/koop/amsterdam/appartement-40636989-grevelingenstraat-9-2/?navigateSource=resultlist,135,799,4,135,1078,4.889365,52.3457636
Hoofdweg 168 I 1057 DC Amsterdam,https://www.funda.nl/koop/amsterdam/appartement-40621584-hoofdweg-168-i/?navigateSource=resultlist,58,360,2,58,1057,4.8534745,52.3653346
KNSM-laan 525 1019 LG Amsterdam,https://www.funda.nl/koop/amsterdam/appartement-40620044-knsm-laan-525/?navigateSource=resultlist,88,550,3,88,1019,4.941665,52.3774642
Roelof Hartstraat 15 -D 1071 VE Amsterdam,https://www.funda.nl/koop/amsterdam/appartement-40620747-roelof-hartstraat-15-d/?navigateSource=resultlist,72,495,3,72,1071,4.8849846,52.35249839999999
Houthavenkade 95 1014 ZB Amsterdam,https://www.funda.nl/koop/amsterdam/appartement-40601410-houthavenkade-95/?navigateSource=resultlist,197,1170,7,197,1014,4.879709,52.395612
Brouwersgracht 819 1015 GK Amsterdam,https://www.funda.nl/koop/amsterdam/appartement-86063011-brouwersgracht-819/?navigateSource=resultlist,101,700,3,101,1015,4.8835195,52.3829473
Overtoom 268 hs 1054 JB Amsterdam,https://www.funda.nl/koop/amsterdam/appartement-40690636-overtoom-268-hs/?navigateSource=resultlist,223,1515,3,223,1054,4.8692759,52.3612112
Plantage Muidergracht 157 Hs 1018 TT Amsterdam,https://www.funda.nl/koop/amsterdam/appartement-40697646-plantage-muidergracht-157-hs/?navigateSource=resultlist,210,1450,5,210,1018,4.9175467,52.36396140000001
Lauriergracht 47 /F 1016 RG Amsterdam,https://www.funda.nl/koop/amsterdam/appartement-40689593-lauriergracht-47-f/?navigateSource=resultlist,411,3450,8,411,1016,4.8805841,52.3711879
Singel 174 /A 1015 AJ Amsterdam,https://www.funda.nl/koop/amsterdam/appartement-40672397-singel-174-a/?navigateSource=resultlist,94,725,4,94,1015,4.889192,52.3748375
John Blankensteinstraat 173 -B 1095 MB Amsterdam,https://www.funda.nl/koop/amsterdam/appartement-40661818-john-blankensteinstraat-173-b/?navigateSource=resultlist,162,739,5,162,1095,4.964583999999999,52.3758912
Eerste Atjehstraat 124 I en II 1094 KT Amsterdam,https://www.funda.nl/koop/amsterdam/appartement-40534675-eerste-atjehstraat-124-i-en-ii/?navigateSource=resultlist,120,649,6,120,1094,4.9371757,52.3625277
Gijsbrecht van IJselsteinstraat 183 1082 KH Amsterdam,https://www.funda.nl/koop/amsterdam/appartement-40596240-gijsbrecht-van-ijselsteinstraat-183/?navigateSource=resultlist,114,625,4,114,1082,4.8714382999999994,52.3305687
Rapenburgerstraat 73 E2 1011 VK Amsterdam,https://www.funda.nl/koop/amsterdam/appartement-40587881-rapenburgerstraat-73-e2/?navigateSource=resultlist,51,465,2,51,1011,4.9084184,52.36916429999999
Rapenburgerstraat 73 D1 1011 VK Amsterdam,https://www.funda.nl/koop/amsterdam/appartement-40587884-rapenburgerstraat-73-d1/?navigateSource=resultlist,52,415,2,52,1011,4.9084184,52.36916429999999
Rapenburgerstraat 73 D6 1011 VK Amsterdam,https://www.funda.nl/koop/amsterdam/appartement-40587870-rapenburgerstraat-73-d6/?navigateSource=resultlist,56,435,2,56,1011,4.9084184,52.36916429999999
Rapenburgerstraat 73 A5 1011 VK Amsterdam,https://www.funda.nl/koop/amsterdam/appartement-40587731-rapenburgerstraat-73-a5/?navigateSource=resultlist,50,445,2,50,1011,4.9084184,52.36916429999999
Rapenburgerstraat 73 A4 1011 VK Amsterdam,https://www.funda.nl/koop/amsterdam/appartement-40587734-rapenburgerstraat-73-a4/?navigateSource=resultlist,56,485,2,56,1011,4.9084184,52.36916429999999
Rapenburgerstraat 73 A3 1011 VK Amsterdam,https://www.funda.nl/koop/amsterdam/appartement-40587726-rapenburgerstraat-73-a3/?navigateSource=resultlist,77,600,3,77,1011,4.9084184,52.36916429999999
Rapenburgerstraat 73 A2 1011 VK Amsterdam,https://www.funda.nl/koop/amsterdam/appartement-40587724-rapenburgerstraat-73-a2/?navigateSource=resultlist,58,510,2,58,1011,4.9084184,52.36916429999999
Rapenburgerstraat 73 C6 1011 VK Amsterdam,https://www.funda.nl/koop/amsterdam/appartement-40587711-rapenburgerstraat-73-c6/?navigateSource=resultlist,55,420,2,55,1011,4.9084184,52.36916429999999
Bilderdijkstraat 203 1 1053 KS Amsterdam,https://www.funda.nl/koop/amsterdam/appartement-40436461-bilderdijkstraat-203-1/?navigateSource=resultlist,108,850,5,108,1053,4.8730212999999996,52.3663876
Kolfschotenstraat 68 1104 PA Amsterdam,https://www.funda.nl/koop/amsterdam/appartement-85733565-kolfschotenstraat-68/?navigateSource=resultlist,72,225,3,72,1104,4.9704891,52.316965
Amstelveenseweg 611 a + PP 1081 JD Amsterdam,https://www.funda.nl/koop/amsterdam/appartement-40736075-amstelveenseweg-611-a-pp/?navigateSource=resultlist,85,450,4,85,1081,4.857708500000001,52.3316495
Eosstraat 9 -3 1076 DK Amsterdam,https://www.funda.nl/koop/amsterdam/appartement-40731851-eosstraat-9-3/?navigateSource=resultlist,104,599,5,104,1076,4.8567707,52.34611109999999
Plantage Doklaan 32 -III 1018 CN Amsterdam,https://www.funda.nl/koop/amsterdam/appartement-40731654-plantage-doklaan-32-iii/?navigateSource=resultlist,80,649,4,80,1018,4.9123909,52.368223
Trouringhstraat 20 III 1055 HB Amsterdam,https://www.funda.nl/koop/amsterdam/appartement-40739469-trouringhstraat-20-iii/?navigateSource=resultlist,50,295,3,50,1055,4.8477492,52.3789874
Katwijkstraat 5 hs 1059 XL Amsterdam,https://www.funda.nl/koop/amsterdam/appartement-40737432-katwijkstraat-5-hs/?navigateSource=resultlist,58,425,2,58,1059,4.8472632,52.350926
Derde Oosterparkstraat 329 1092 EA Amsterdam,https://www.funda.nl/koop/amsterdam/appartement-40725654-derde-oosterparkstraat-329/?navigateSource=resultlist,105,535,4,105,1092,4.9251609,52.3588503
Pretoriusstraat 91 III+IV 1092 GD Amsterdam,https://www.funda.nl/koop/amsterdam/appartement-40714483-pretoriusstraat-91-iii-iv/?navigateSource=resultlist,87,395,4,87,1092,4.920824,52.35435
Wilhelminastraat 100 III 1054 WN Amsterdam,https://www.funda.nl/koop/amsterdam/appartement-40711408-wilhelminastraat-100-iii/?navigateSource=resultlist,65,415,3,65,1054,4.863329999999999,52.36170869999999
Rijnstraat 111 I 1079 HA Amsterdam,https://www.funda.nl/koop/amsterdam/appartement-40718691-rijnstraat-111-i/?navigateSource=resultlist,126,795,6,126,1079,4.906249,52.3443407
Fokke Simonszstraat 37 -III+IV 1017 TE Amsterdam,https://www.funda.nl/koop/amsterdam/appartement-40718590-fokke-simonszstraat-37-iii-iv/?navigateSource=resultlist,54,365,3,54,1017,4.8936097,52.360314700000004
Klaprozenweg 47 C2* 1032 KK Amsterdam,https://www.funda.nl/koop/amsterdam/appartement-40717176-klaprozenweg-47-c2/?navigateSource=resultlist,140,625,4,140,1032,4.9047376,52.3992721
Karthuizersdwarsstraat 24 1015 KP Amsterdam,https://www.funda.nl/koop/amsterdam/appartement-86179226-karthuizersdwarsstraat-24/?navigateSource=resultlist,158,1075,5,158,1015,4.8811254,52.3790904
Prinsengracht 368 A 1016 JA Amsterdam,https://www.funda.nl/koop/amsterdam/appartement-40647975-prinsengracht-368-a/?navigateSource=resultlist,68,675,3,68,1016,4.882136099999999,52.3677163
Assendelftstraat 45 1013 SN Amsterdam,https://www.funda.nl/koop/amsterdam/appartement-40623532-assendelftstraat-45/?navigateSource=resultlist,79,439,3,79,1013,4.8791947,52.388654
Raphaëlstraat 8 -hs 1077 PR Amsterdam,https://www.funda.nl/koop/amsterdam/appartement-40623425-raphaelstraat-8-hs/?navigateSource=resultlist,119,925,6,119,1077,4.8695808,52.34990269999999
Hartenstraat 11 I/II 1016 BZ Amsterdam,https://www.funda.nl/koop/amsterdam/appartement-40623424-hartenstraat-11-i-ii/?navigateSource=resultlist,180,1100,6,180,1016,4.8862253,52.37226339999999
Rozengracht 247 A 1016 SX Amsterdam,https://www.funda.nl/koop/amsterdam/appartement-86064101-rozengracht-247-a/?navigateSource=resultlist,150,849,5,150,1016,4.875141999999999,52.371874
Daniël Stalpertstraat 86 H 1072 XL Amsterdam,https://www.funda.nl/koop/amsterdam/appartement-86056552-daniel-stalpertstraat-86-h/?navigateSource=resultlist,193,1050,5,193,1072,4.8913667,52.3560713
Gustav Mahlerplein 153 1082 MS Amsterdam,https://www.funda.nl/koop/amsterdam/appartement-40676755-gustav-mahlerplein-153/?navigateSource=resultlist,112,850,3,112,1082,4.8733355,52.3364506
Von Zesenstraat 170 1093 BJ Amsterdam,https://www.funda.nl/koop/amsterdam/appartement-86195321-von-zesenstraat-170/?navigateSource=resultlist,67,350,3,67,1093,4.924903,52.3638825
George Gershwinlaan 159 1082 MT Amsterdam,https://www.funda.nl/koop/amsterdam/appartement-40624694-george-gershwinlaan-159/?navigateSource=resultlist,135,660,4,135,1082,4.872520199999999,52.3358164
Kostverlorenstraat 19 -D 1052 GT Amsterdam,https://www.funda.nl/koop/amsterdam/appartement-40602138-kostverlorenstraat-19-d/?navigateSource=resultlist,231,1650,4,231,1052,4.8737118,52.3787609
Rhijnvis Feithstraat 60 -hs 1054 VA Amsterdam,https://www.funda.nl/koop/amsterdam/appartement-40694546-rhijnvis-feithstraat-60-hs/?navigateSource=resultlist,96,685,4,96,1054,4.860004399999999,52.35907109999999
Apollolaan 95 hs 1077 AM Amsterdam,https://www.funda.nl/koop/amsterdam/appartement-40676651-apollolaan-95-hs/?navigateSource=resultlist,231,1500,8,231,1077,4.8777099,52.3503959
Recht Boomssloot 41 -BG + I 1011 CS Amsterdam,https://www.funda.nl/koop/amsterdam/appartement-40647182-recht-boomssloot-41-bg-i/?navigateSource=resultlist,184,998,4,184,1011,4.9025998,52.3725466
Recht Boomssloot 41 BG + I 1011 CS Amsterdam,https://www.funda.nl/koop/amsterdam/appartement-40628806-recht-boomssloot-41-bg-i/?navigateSource=resultlist,184,998,4,184,1011,4.9026992,52.37267000000001
Vossiusstraat 16 H 1071 AC Amsterdam,https://www.funda.nl/koop/amsterdam/appartement-40696196-vossiusstraat-16-h/?navigateSource=resultlist,203,1675,6,203,1071,4.880829299999999,52.3610617
Cornelis Schuytstraat 50 -boven 1071 JL Amsterdam,https://www.funda.nl/koop/amsterdam/appartement-40521505-cornelis-schuytstraat-50-boven/?navigateSource=resultlist,214,2075,4,214,1071,4.871741099999999,52.3541244
Looiersgracht 10 -1 1016 VS Amsterdam,https://www.funda.nl/koop/amsterdam/appartement-40593092-looiersgracht-10-1/?navigateSource=resultlist,160,1395,4,160,1016,4.8820631,52.3689025
Minervalaan 52 2 1077 PC Amsterdam,https://www.funda.nl/koop/amsterdam/appartement-86085639-minervalaan-52-2/?navigateSource=resultlist,122,1045,4,122,1077,4.8721691,52.3477445
Inzet 5 1068 RC Amsterdam,https://www.funda.nl/koop/amsterdam/appartement-40856107-inzet-5/?navigateSource=resultlist,60,225,2,60,1068,4.8037557,52.35568980000001
Orteliusstraat 280 I 1056 PM Amsterdam,https://www.funda.nl/koop/amsterdam/appartement-40855785-orteliusstraat-280-i/?navigateSource=resultlist,51,315,3,51,1056,4.8482869,52.3723851
Gillis van Ledenberchstraat 118 D 1052 VL Amsterdam,https://www.funda.nl/koop/amsterdam/appartement-40744238-gillis-van-ledenberchstraat-118-d/?navigateSource=resultlist,90,625,3,90,1052,4.8707962,52.3756934
Elandsstraat 52 1016 SG Amsterdam,https://www.funda.nl/koop/amsterdam/appartement-40732219-elandsstraat-52/?navigateSource=resultlist,96,750,3,96,1016,4.8805843,52.3705413
Wijttenbachstraat 281 1093 HX Amsterdam,https://www.funda.nl/koop/amsterdam/appartement-40732000-wijttenbachstraat-281/?navigateSource=resultlist,71,375,3,71,1093,4.9288669999999994,52.3610398
Ruysdaelstraat 108 D 1071 XH Amsterdam,https://www.funda.nl/koop/amsterdam/appartement-40739970-ruysdaelstraat-108-d/?navigateSource=resultlist,176,1475,4,176,1071,4.8801404,52.3534801
Wamberg 38 1083 CW Amsterdam,https://www.funda.nl/koop/amsterdam/appartement-40739790-wamberg-38/?navigateSource=resultlist,117,469,4,117,1083,4.8860239,52.3277013
Anjeliersstraat 16 -B 1015 NH Amsterdam,https://www.funda.nl/koop/amsterdam/appartement-40738832-anjeliersstraat-16-b/?navigateSource=resultlist,75,595,3,75,1015,4.885392899999999,52.3782653
Ilperveldstraat 2 1024 PG Amsterdam,https://www.funda.nl/koop/amsterdam/appartement-40737957-ilperveldstraat-2/?navigateSource=resultlist,98,325,4,98,1024,4.9437483,52.39407449999999
Pieter de Hoochstraat 9 D 1071 ED Amsterdam,https://www.funda.nl/koop/amsterdam/appartement-40714231-pieter-de-hoochstraat-9-d/?navigateSource=resultlist,206,4600,4,206,1071,4.8852909,52.3569143
Spuistraat 58 -3 1012 TV Amsterdam,https://www.funda.nl/koop/amsterdam/appartement-40713827-spuistraat-58-3/?navigateSource=resultlist,157,1075,4,157,1012,4.8921645,52.3760814
Sijlhoff 44 III 1082 ER Amsterdam,https://www.funda.nl/koop/amsterdam/appartement-40710112-sijlhoff-44-iii/?navigateSource=resultlist,138,575,4,138,1082,4.873489999999999,52.3252205
Jan Zijvertszstraat 1 H 1067 XH Amsterdam,https://www.funda.nl/koop/amsterdam/appartement-40710885-jan-zijvertszstraat-1-h/?navigateSource=resultlist,69,279,4,69,1067,4.8054479,52.37836619999999
Ruimzicht 24 1068 CL Amsterdam,https://www.funda.nl/koop/amsterdam/appartement-40717312-ruimzicht-24/?navigateSource=resultlist,96,315,4,96,1068,4.8070888,52.3623482
Keizersgracht 216 E 1016 DZ Amsterdam,https://www.funda.nl/koop/amsterdam/appartement-40716067-keizersgracht-216-e/?navigateSource=resultlist,105,795,3,105,1016,4.884380999999999,52.3733832
Herengracht 189 C 1016 BE Amsterdam,https://www.funda.nl/koop/amsterdam/appartement-40715304-herengracht-189-c/?navigateSource=resultlist,85,789,3,85,1016,4.887906399999999,52.37423889999999
Saskia van Uijlenburgkade 65 1058 GA Amsterdam,https://www.funda.nl/koop/amsterdam/appartement-40704520-saskia-van-uijlenburgkade-65/?navigateSource=resultlist,158,975,4,158,1058,4.8451357,52.3562695
Nieuwe Looiersstraat 116 1017 VE Amsterdam,https://www.funda.nl/koop/amsterdam/appartement-40793500-nieuwe-looiersstraat-116/?navigateSource=resultlist,52,345,2,52,1017,4.8944619,52.3604792
Da Costakade 10 C 1052 SJ Amsterdam,https://www.funda.nl/koop/amsterdam/appartement-40751046-da-costakade-10-c/?navigateSource=resultlist,132,899,4,132,1052,4.8722609,52.3722305
Alkmaarstraat 197 1024 TN Amsterdam,https://www.funda.nl/koop/amsterdam/appartement-40757298-alkmaarstraat-197/?navigateSource=resultlist,77,295,3,77,1024,4.948892799999999,52.395062
De Clercqstraat 56 I 1052 NH Amsterdam,https://www.funda.nl/koop/amsterdam/appartement-40623457-de-clercqstraat-56-i/?navigateSource=resultlist,67,430,3,67,1052,4.8697208,52.3709432
Lootsstraat 12 -A 1053 NX Amsterdam,https://www.funda.nl/koop/amsterdam/appartement-40623462-lootsstraat-12-a/?navigateSource=resultlist,55,335,2,55,1053,4.8607679,52.3640886
Eerste Helmersstraat 207 A 1054 DW Amsterdam,https://www.funda.nl/koop/amsterdam/appartement-40622977-eerste-helmersstraat-207-a/?navigateSource=resultlist,136,799,4,136,1054,4.8672783,52.3613515
Hoofddorpplein 18 I 1058 PD Amsterdam,https://www.funda.nl/koop/amsterdam/appartement-40627500-hoofddorpplein-18-i/?navigateSource=resultlist,65,385,3,65,1058,4.850071,52.35176569999999
Warmondstraat 122 H 1058 KZ Amsterdam,https://www.funda.nl/koop/amsterdam/appartement-40611290-warmondstraat-122-h/?navigateSource=resultlist,160,895,6,160,1058,4.8492694,52.3546923
Kloveniersburgwal 127 II 1011 KD Amsterdam,https://www.funda.nl/koop/amsterdam/appartement-40610558-kloveniersburgwal-127-ii/?navigateSource=resultlist,52,425,2,52,1011,4.8966236,52.3682115
Kromme-Mijdrechtstraat 91 2 1079 KT Amsterdam,https://www.funda.nl/koop/amsterdam/appartement-40618067-kromme-mijdrechtstraat-91-2/?navigateSource=resultlist,55,335,2,55,1079,4.9118084,52.3449111
Osdorpplein 75 1068 EK Amsterdam,https://www.funda.nl/koop/amsterdam/appartement-40618438-osdorpplein-75/?navigateSource=resultlist,92,300,3,92,1068,4.8068205,52.359291
Wagenaarstraat 318 1093 CX Amsterdam,https://www.funda.nl/koop/amsterdam/appartement-40604133-wagenaarstraat-318/?navigateSource=resultlist,105,520,4,105,1093,4.9276544,52.3633
Toldwarsstraat 16 Hs 1073 RR Amsterdam,https://www.funda.nl/koop/amsterdam/appartement-40604657-toldwarsstraat-16-hs/?navigateSource=resultlist,113,675,4,113,1073,4.901148399999999,52.3518067
Uithoornstraat 2 A-huis 1078 SX Amsterdam,https://www.funda.nl/koop/amsterdam/appartement-40608263-uithoornstraat-2-a-huis/?navigateSource=resultlist,116,685,5,116,1078,4.9100625,52.3478071
Koninginneweg 193 Hs 1075 CR Amsterdam,https://www.funda.nl/koop/amsterdam/appartement-40696383-koninginneweg-193-hs/?navigateSource=resultlist,243,1595,6,243,1075,4.8607039,52.35246919999999
Jacob van Lennepstraat 69 I 1053 HE Amsterdam,https://www.funda.nl/koop/amsterdam/appartement-40696078-jacob-van-lennepstraat-69-i/?navigateSource=resultlist,69,489,3,69,1053,4.872389,52.365934
Dijkgraafplein 379 1069 EV Amsterdam,https://www.funda.nl/koop/amsterdam/appartement-86034654-dijkgraafplein-379/?navigateSource=resultlist,101,275,4,101,1069,4.7853055,52.3555974
Sarphatistraat 478 1018 GW Amsterdam,https://www.funda.nl/koop/amsterdam/appartement-86963668-sarphatistraat-478/?navigateSource=resultlist,124,770,5,124,1018,4.918830799999999,52.36331029999999
Willem de Zwijgerlaan 88 III 1056 JT Amsterdam,https://www.funda.nl/koop/amsterdam/appartement-40751827-willem-de-zwijgerlaan-88-iii/?navigateSource=resultlist,56,300,4,56,1056,4.863786,52.3730412
Eerste Oosterparkstraat 75 1091 GW Amsterdam,https://www.funda.nl/koop/amsterdam/appartement-40600869-eerste-oosterparkstraat-75/?navigateSource=resultlist,119,799,5,119,1091,4.9098361,52.3562568
Nachtwachtlaan 124 1058 ED Amsterdam,https://www.funda.nl/koop/amsterdam/appartement-40605250-nachtwachtlaan-124/?navigateSource=resultlist,98,435,4,98,1058,4.843308299999999,52.36105509999999
Talbotstraat 179 1087 DM Amsterdam,https://www.funda.nl/koop/amsterdam/appartement-40695357-talbotstraat-179/?navigateSource=resultlist,88,375,3,88,1087,4.9955789,52.3584222
Spadinalaan 33 1031 KB Amsterdam,https://www.funda.nl/koop/amsterdam/appartement-40684232-spadinalaan-33/?navigateSource=resultlist,80,515,3,80,1031,4.9024521,52.3869718
Cruquiuskade 59 1018 AM Amsterdam,https://www.funda.nl/koop/amsterdam/appartement-40686398-cruquiuskade-59/?navigateSource=resultlist,112,600,5,112,1018,4.9288139,52.3676006
Taman Sapituin 9 1019 SJ Amsterdam,https://www.funda.nl/koop/amsterdam/appartement-40661574-taman-sapituin-9/?navigateSource=resultlist,81,425,3,81,1019,4.9292736,52.3785404
Schierstins 46 1082 TH Amsterdam,https://www.funda.nl/koop/amsterdam/appartement-40666346-schierstins-46/?navigateSource=resultlist,67,325,3,67,1082,4.8747581,52.3340164
Johan Huizingalaan 290 II 1065 JN Amsterdam,https://www.funda.nl/koop/amsterdam/appartement-40533540-johan-huizingalaan-290-ii/?navigateSource=resultlist,71,250,4,71,1065,4.8270252,52.35378000000001
Valentijnkade 55 -A 1095 JK Amsterdam,https://www.funda.nl/koop/amsterdam/appartement-40508721-valentijnkade-55-a/?navigateSource=resultlist,75,450,3,75,1095,4.9429871,52.3585104
Ben van Meerendonkstraat 283 1087 LN Amsterdam,https://www.funda.nl/koop/amsterdam/appartement-40563883-ben-van-meerendonkstraat-283/?navigateSource=resultlist,90,350,4,90,1087,5.0119771,52.3491738
Prinsengracht 260 -II 1016 HG Amsterdam,https://www.funda.nl/koop/amsterdam/appartement-40744089-prinsengracht-260-ii/?navigateSource=resultlist,65,585,3,65,1016,4.882492099999999,52.3714649
Van Boshuizenstraat 189 1083 AV Amsterdam,https://www.funda.nl/koop/amsterdam/appartement-40733350-van-boshuizenstraat-189/?navigateSource=resultlist,71,399,3,71,1083,4.8857199,52.324743
Arent Janszoon Ernststraat 17 1083 GP Amsterdam,https://www.funda.nl/koop/amsterdam/appartement-40733517-arent-janszoon-ernststraat-17/?navigateSource=resultlist,135,495,4,135,1083,4.8891616,52.3317681
Van Hogendorpstraat 161 I 1051 BN Amsterdam,https://www.funda.nl/koop/amsterdam/appartement-40732064-van-hogendorpstraat-161-i/?navigateSource=resultlist,51,300,2,51,1051,4.8731946,52.38288499999999
Karel Doormanstraat 142 II 1055 VJ Amsterdam,https://www.funda.nl/koop/amsterdam/appartement-40739295-karel-doormanstraat-142-ii/?navigateSource=resultlist,53,295,4,53,1055,4.857355699999999,52.3792944
Tommaso Albinonistraat 158 1083 HM Amsterdam,https://www.funda.nl/koop/amsterdam/appartement-86193827-tommaso-albinonistraat-158/?navigateSource=resultlist,180,1395,4,180,1083,4.887331200000001,52.3353644
Keizersgracht 20 B 1015 CP Amsterdam,https://www.funda.nl/koop/amsterdam/appartement-40738680-keizersgracht-20-b/?navigateSource=resultlist,140,1250,4,140,1015,4.8889968,52.3791417
Alblasstraat 11 I 1079 ZG Amsterdam,https://www.funda.nl/koop/amsterdam/appartement-40737175-alblasstraat-11-i/?navigateSource=resultlist,54,339,3,54,1079,4.899533,52.3425337
Entrepotdok 154 + PP 1018 AD Amsterdam,https://www.funda.nl/koop/amsterdam/appartement-40737826-entrepotdok-154-pp/?navigateSource=resultlist,134,860,4,134,1018,4.9215893,52.36626020000001
Westerstraat 146 D 1015 MP Amsterdam,https://www.funda.nl/koop/amsterdam/appartement-86191459-westerstraat-146-d/?navigateSource=resultlist,51,460,3,51,1015,4.8823814,52.37841270000001
Gibraltarstraat 75 hs 1055 NL Amsterdam,https://www.funda.nl/koop/amsterdam/appartement-40725003-gibraltarstraat-75-hs/?navigateSource=resultlist,125,719,4,125,1055,4.8492674,52.3841628
Transvaalkade 135 -III 1091 LT Amsterdam,https://www.funda.nl/koop/amsterdam/appartement-86189525-transvaalkade-135-iii/?navigateSource=resultlist,102,550,3,102,1091,4.9170303,52.35042430000001
Amstelveenseweg 916 -A 1081 JN Amsterdam,https://www.funda.nl/koop/amsterdam/appartement-40725844-amstelveenseweg-916-a/?navigateSource=resultlist,145,880,4,145,1081,4.8572073,52.3272402
Lauriergracht 27 A 1016 RE Amsterdam,https://www.funda.nl/koop/amsterdam/appartement-86189166-lauriergracht-27-a/?navigateSource=resultlist,61,475,2,61,1016,4.881623300000001,52.3714799
Haparandaweg 686 +PP 1013 BD Amsterdam,https://www.funda.nl/koop/amsterdam/appartement-86189157-haparandaweg-686-pp/?navigateSource=resultlist,104,675,3,104,1013,4.8768804,52.3946076
Egelantiersstraat 6 hs 1015 PL Amsterdam,https://www.funda.nl/koop/amsterdam/appartement-86189154-egelantiersstraat-6-hs/?navigateSource=resultlist,183,1275,3,183,1015,4.8849205,52.3772641
De la Reijstraat 37 1091 NZ Amsterdam,https://www.funda.nl/koop/amsterdam/appartement-86178821-de-la-reijstraat-37/?navigateSource=resultlist,54,285,2,54,1091,4.919573,52.3518078
Mensinge 27 1083 HB Amsterdam,https://www.funda.nl/koop/amsterdam/appartement-40712117-mensinge-27/?navigateSource=resultlist,135,699,4,135,1083,4.888770399999999,52.3326292
Leerdamhof 146 1108 BM Amsterdam,https://www.funda.nl/koop/amsterdam/appartement-40711950-leerdamhof-146/?navigateSource=resultlist,67,175,3,67,1108,4.975630499999999,52.308148
Rozenstraat 78 A 1016 NX Amsterdam,https://www.funda.nl/koop/amsterdam/appartement-40711737-rozenstraat-78-a/?navigateSource=resultlist,72,475,2,72,1016,4.8809751,52.372856
Eerste Boerhaavestraat 5 HS 1091 RZ Amsterdam,https://www.funda.nl/koop/amsterdam/appartement-86175178-eerste-boerhaavestraat-5-hs/?navigateSource=resultlist,108,730,4,108,1091,4.9071409,52.3582124
Lekstraat 184 III 1079 GA Amsterdam,https://www.funda.nl/koop/amsterdam/appartement-86174655-lekstraat-184-iii/?navigateSource=resultlist,128,675,6,128,1079,4.9017291,52.34412140000001
Hugo Floris Ruysstraat 2 1 1063 KD Amsterdam,https://www.funda.nl/koop/amsterdam/appartement-86174276-hugo-floris-ruysstraat-2-1/?navigateSource=resultlist,67,235,3,67,1063,4.8258998,52.3802049
Geuzenkade 89 II 1056 KP Amsterdam,https://www.funda.nl/koop/amsterdam/appartement-86172615-geuzenkade-89-ii/?navigateSource=resultlist,56,325,3,56,1056,4.8637171,52.3747808
Onstein 76 1082 KL Amsterdam,https://www.funda.nl/koop/amsterdam/appartement-86172613-onstein-76/?navigateSource=resultlist,71,300,2,71,1082,4.8695055,52.3311195
Talbotstraat 185 1087 DM Amsterdam,https://www.funda.nl/koop/amsterdam/appartement-40717131-talbotstraat-185/?navigateSource=resultlist,70,300,2,70,1087,4.9962081,52.3588795
Lange Leidsedwarsstraat 105 III 1017 NJ Amsterdam,https://www.funda.nl/koop/amsterdam/appartement-40717937-lange-leidsedwarsstraat-105-iii/?navigateSource=resultlist,92,750,3,92,1017,4.8861934,52.3630019
Zeeburgerdijk 712 1095 LG Amsterdam,https://www.funda.nl/koop/amsterdam/appartement-86179969-zeeburgerdijk-712/?navigateSource=resultlist,90,450,3,90,1095,4.9483263,52.3662095
Baarsjesweg 133 B 1057 HL Amsterdam,https://www.funda.nl/koop/amsterdam/appartement-86115789-baarsjesweg-133-b/?navigateSource=resultlist,110,595,3,110,1057,4.863807,52.3693803
Remmerdenplein 31 1106 AE Amsterdam,https://www.funda.nl/koop/amsterdam/appartement-40751609-remmerdenplein-31/?navigateSource=resultlist,84,215,3,84,1106,4.974037699999999,52.2980941
Max Planckstraat 8 I 1098 TV Amsterdam,https://www.funda.nl/koop/amsterdam/appartement-40635705-max-planckstraat-8-i/?navigateSource=resultlist,67,335,4,67,1098,4.9452663,52.3520785
Rapenburgerstraat 204 1011 MN Amsterdam,https://www.funda.nl/koop/amsterdam/appartement-40621817-rapenburgerstraat-204/?navigateSource=resultlist,80,525,4,80,1011,4.9066445,52.3688069
Chet Bakerstraat 201 1066 GJ Amsterdam,https://www.funda.nl/koop/amsterdam/appartement-40628606-chet-bakerstraat-201/?navigateSource=resultlist,80,365,3,80,1066,4.826775100000001,52.3449977
Adriaan van Bergenstraat 8 I 1056 JW Amsterdam,https://www.funda.nl/koop/amsterdam/appartement-40611364-adriaan-van-bergenstraat-8-i/?navigateSource=resultlist,63,349,4,63,1056,4.8640045,52.3725538
Troelstralaan 263 A 1067 MX Amsterdam,https://www.funda.nl/koop/amsterdam/appartement-40611150-troelstralaan-263-a/?navigateSource=resultlist,103,399,3,103,1067,4.801264499999999,52.37376889999999
De Boelelaan 265 1082 RC Amsterdam,https://www.funda.nl/koop/amsterdam/appartement-40610727-de-boelelaan-265/?navigateSource=resultlist,69,299,3,69,1082,4.8777874,52.3346946
Herengracht 12 C 1015 BK Amsterdam,https://www.funda.nl/koop/amsterdam/appartement-40618032-herengracht-12-c/?navigateSource=resultlist,125,799,2,125,1015,4.891166,52.37879299999999
Badhuiskade 249 1031 KV Amsterdam,https://www.funda.nl/koop/amsterdam/appartement-40616039-badhuiskade-249/?navigateSource=resultlist,117,783.659,3,117,1031,4.9048462,52.38462269999999
Singel 206 A 1016 AA Amsterdam,https://www.funda.nl/koop/amsterdam/appartement-40615078-singel-206-a/?navigateSource=resultlist,123,995,3,123,1016,4.888658200000001,52.3739904
Kanaalstraat 36 HS 1054 XJ Amsterdam,https://www.funda.nl/koop/amsterdam/appartement-40604000-kanaalstraat-36-hs/?navigateSource=resultlist,71,495,3,71,1054,4.8655583,52.3628
Geldersekade 6 D 1012 BH Amsterdam,https://www.funda.nl/koop/amsterdam/appartement-40601863-geldersekade-6-d/?navigateSource=resultlist,190,1699,4,190,1012,4.9018937,52.3762653
Brouwersgracht 210 B 1013 HD Amsterdam,https://www.funda.nl/koop/amsterdam/appartement-86061899-brouwersgracht-210-b/?navigateSource=resultlist,116,850,3,116,1013,4.886852999999999,52.3817032
Staringplein 14 HS 1054 VL Amsterdam,https://www.funda.nl/koop/amsterdam/appartement-40692933-staringplein-14-hs/?navigateSource=resultlist,134,899,5,134,1054,4.862854,52.360568
Pieter Aertszstraat 87 hs 1073 SL Amsterdam,https://www.funda.nl/koop/amsterdam/appartement-40683974-pieter-aertszstraat-87-hs/?navigateSource=resultlist,74,475,3,74,1073,4.902032,52.3526744
Swammerdamstraat 38 B 1091 RV Amsterdam,https://www.funda.nl/koop/amsterdam/appartement-40675527-swammerdamstraat-38-b/?navigateSource=resultlist,185,1675,5,185,1091,4.9076645,52.3576601
Swammerdamstraat 38 A 1091 RV Amsterdam,https://www.funda.nl/koop/amsterdam/appartement-40675501-swammerdamstraat-38-a/?navigateSource=resultlist,149,1295,4,149,1091,4.9076645,52.3576601
Korte Leidsedwarsstraat 35 a-hs 1017 PW Amsterdam,https://www.funda.nl/koop/amsterdam/appartement-40669663-korte-leidsedwarsstraat-35-a-hs/?navigateSource=resultlist,52,350,2,52,1017,4.8822693,52.3650385
Voorsteven 76 1034 SN Amsterdam,https://www.funda.nl/koop/amsterdam/appartement-40652314-voorsteven-76/?navigateSource=resultlist,90,285,5,90,1034,4.9152252,52.4110475
Reggestraat 4 III 1078 CZ Amsterdam,https://www.funda.nl/koop/amsterdam/appartement-86016065-reggestraat-4-iii/?navigateSource=resultlist,98,575,4,98,1078,4.9015786,52.3483318
Weerdestein 78 1083 GE Amsterdam,https://www.funda.nl/koop/amsterdam/appartement-40658028-weerdestein-78/?navigateSource=resultlist,111,420,3,111,1083,4.8884232,52.3308931
Arent Janszoon Ernststraat 89 1083 GR Amsterdam,https://www.funda.nl/koop/amsterdam/appartement-40655400-arent-janszoon-ernststraat-89/?navigateSource=resultlist,54,297.5,2,54,1083,4.8890886,52.33172279999999
Bartholomeus Ruloffsstraat 5 -1 1071 WJ Amsterdam,https://www.funda.nl/koop/amsterdam/appartement-40520021-bartholomeus-ruloffsstraat-5-1/?navigateSource=resultlist,78,475,2,78,1071,4.8790075,52.3525298
Revaleiland 450 1014 ZG Amsterdam,https://www.funda.nl/koop/amsterdam/appartement-40508133-revaleiland-450/?navigateSource=resultlist,232,1028.685,5,232,1014,4.878906,52.3928525
Rengerskerkestraat 46 1069 HV Amsterdam,https://www.funda.nl/koop/amsterdam/appartement-86953809-rengerskerkestraat-46/?navigateSource=resultlist,101,350,3,101,1069,4.7935805,52.35507459999999
Bloemgracht 63 5 1016 KG Amsterdam,https://www.funda.nl/koop/amsterdam/appartement-86952786-bloemgracht-63-5/?navigateSource=resultlist,221,2121.5,6,221,1016,4.8807963,52.3745219
Narva-eiland 69 1014 ZJ Amsterdam,https://www.funda.nl/koop/amsterdam/appartement-40583571-narva-eiland-69/?navigateSource=resultlist,204,1130.177,7,204,1014,4.8797612,52.3928623
Nieuwe Achtergracht 136 C 1018 WV Amsterdam,https://www.funda.nl/koop/amsterdam/appartement-40412868-nieuwe-achtergracht-136-c/?navigateSource=resultlist,149,1600,5,149,1018,4.9100872,52.3627092
Revaleiland (Bouwnr. 90) 1014 ZM Amsterdam,https://www.funda.nl/koop/amsterdam/appartement-40470881-revaleiland-bouwnr-90/?navigateSource=resultlist,200,1131.554,4,200,1014,4.878906,52.3928525
Revaleiland (Bouwnr. 56) 1014 ZM Amsterdam,https://www.funda.nl/koop/amsterdam/appartement-40470870-revaleiland-bouwnr-56/?navigateSource=resultlist,155,759.644,4,155,1014,4.878906,52.3928525
Kuipersstraat 113 2 1073 EP Amsterdam,https://www.funda.nl/koop/amsterdam/appartement-40731916-kuipersstraat-113-2/?navigateSource=resultlist,126,700,4,126,1073,4.901951599999999,52.3532788
Cornelis Dirkszstraat 11 D17+PP 1056 TM Amsterdam,https://www.funda.nl/koop/amsterdam/appartement-40714729-cornelis-dirkszstraat-11-d17-pp/?navigateSource=resultlist,84,485,3,84,1056,4.8577546,52.3720766
Sanderijnstraat 34 HS 1055 BT Amsterdam,https://www.funda.nl/koop/amsterdam/appartement-40713174-sanderijnstraat-34-hs/?navigateSource=resultlist,78,450,3,78,1055,4.8507699,52.3775163
Lanseloetstraat 39 I 1055 BC Amsterdam,https://www.funda.nl/koop/amsterdam/appartement-40713081-lanseloetstraat-39-i/?navigateSource=resultlist,53,275,3,53,1055,4.8494369,52.3774498
Jan Zijvertszstraat 6 III 1067 XJ Amsterdam,https://www.funda.nl/koop/amsterdam/appartement-40711924-jan-zijvertszstraat-6-iii/?navigateSource=resultlist,60,239,3,60,1067,4.8055312,52.3787138
Erich Salomonstraat 569 1087 GT Amsterdam,https://www.funda.nl/koop/amsterdam/appartement-40711592-erich-salomonstraat-569/?navigateSource=resultlist,82,375,3,82,1087,4.9991857,52.3559135
Madurastraat 70 -II 1094 GR Amsterdam,https://www.funda.nl/koop/amsterdam/appartement-40710120-madurastraat-70-ii/?navigateSource=resultlist,50,325,3,50,1094,4.9344719,52.36422169999999
Osdorper Ban 683 1069 GA Amsterdam,https://www.funda.nl/koop/amsterdam/appartement-40718721-osdorper-ban-683/?navigateSource=resultlist,90,290,3,90,1069,4.794747099999999,52.3605905
Hoofdweg 138 III 1057 DA Amsterdam,https://www.funda.nl/koop/amsterdam/appartement-40717010-hoofdweg-138-iii/?navigateSource=resultlist,67,300,3,67,1057,4.853436299999999,52.36450139999999
IJburglaan 415 1086 ZJ Amsterdam,https://www.funda.nl/koop/amsterdam/appartement-40716587-ijburglaan-415/?navigateSource=resultlist,94,385,3,94,1086,4.982969900000001,52.3621892
Sanderijnstraat 34 I 1055 BT Amsterdam,https://www.funda.nl/koop/amsterdam/appartement-40715394-sanderijnstraat-34-i/?navigateSource=resultlist,55,300,3,55,1055,4.8507869,52.3775458
Scheldestraat 81 1 1078 GH Amsterdam,https://www.funda.nl/koop/amsterdam/appartement-40715138-scheldestraat-81-1/?navigateSource=resultlist,90,450,5,90,1078,4.8911089,52.3453099
Kastelenstraat 51 -1 1083 CB Amsterdam,https://www.funda.nl/koop/amsterdam/appartement-86157813-kastelenstraat-51-1/?navigateSource=resultlist,66,325,3,66,1083,4.8841493,52.32595629999999
Berberisstraat 41 1032 EK Amsterdam,https://www.funda.nl/koop/amsterdam/appartement-40750262-berberisstraat-41/?navigateSource=resultlist,90,375,4,90,1032,4.9139821,52.3925819
Pieter van der Doesstraat 32 III/IV 1056 VG Amsterdam,https://www.funda.nl/koop/amsterdam/appartement-40758002-pieter-van-der-doesstraat-32-iii-iv/?navigateSource=resultlist,111,650,4,111,1056,4.858331400000001,52.3724477
Burgemeester De Vlugtlaan 327 1063 BP Amsterdam,https://www.funda.nl/koop/amsterdam/appartement-40637528-burgemeester-de-vlugtlaan-327/?navigateSource=resultlist,72,200,3,72,1063,4.8182792,52.3815464
Amstelkade 22 III 1078 AD Amsterdam,https://www.funda.nl/koop/amsterdam/appartement-40635754-amstelkade-22-iii/?navigateSource=resultlist,112,575,3,112,1078,4.9059403,52.349069
Johan Hofmanstraat 274 +PP 1069 KE Amsterdam,https://www.funda.nl/koop/amsterdam/appartement-40622773-johan-hofmanstraat-274-pp/?navigateSource=resultlist,106,350,3,106,1069,4.794853199999999,52.3520768
Trijn Hullemanlaan 100 1069 PV Amsterdam,https://www.funda.nl/koop/amsterdam/appartement-40621460-trijn-hullemanlaan-100/?navigateSource=resultlist,84,265,3,84,1069,4.7856573,52.35130299999999
Willem de Zwijgerlaan 7 II 1056 JD Amsterdam,https://www.funda.nl/koop/amsterdam/appartement-40620813-willem-de-zwijgerlaan-7-ii/?navigateSource=resultlist,59,325,2,59,1056,4.863189999999999,52.37121089999999
Ladogameerhof 75 1060 PJ Amsterdam,https://www.funda.nl/koop/amsterdam/appartement-40628872-ladogameerhof-75/?navigateSource=resultlist,86,295,3,86,1060,4.7809973,52.350758
Marnixstraat 100 -1 1015 VZ Amsterdam,https://www.funda.nl/koop/amsterdam/appartement-40627153-marnixstraat-100-1/?navigateSource=resultlist,58,375,3,58,1015,4.8792417,52.3789113
Bonnefantenstraat 58 1064 PN Amsterdam,https://www.funda.nl/koop/amsterdam/appartement-40626913-bonnefantenstraat-58/?navigateSource=resultlist,110,375,4,110,1064,4.8323459,52.3656645
Griseldestraat 11 II 1055 AR Amsterdam,https://www.funda.nl/koop/amsterdam/appartement-40614324-griseldestraat-11-ii/?navigateSource=resultlist,50,260,2,50,1055,4.8489184,52.3764602
Stadhouderskade 156 II 1074 BC Amsterdam,https://www.funda.nl/koop/amsterdam/appartement-40614042-stadhouderskade-156-ii/?navigateSource=resultlist,187,1300,6,187,1074,4.9030223,52.3585608
Valkenburgerstraat 87 1011 MH Amsterdam,https://www.funda.nl/koop/amsterdam/appartement-40613258-valkenburgerstraat-87/?navigateSource=resultlist,95,475,4,95,1011,4.906975699999999,52.3693701
